{
"type": "FeatureCollection",
"crs": { "type": "name", "properties": { "name": "urn:ogc:def:crs:OGC:1.3:CRS84" } },
"features": [
{ "type": "Feature", "properties": { "name": "COLUMBIA UNIVERSITY ST PAULS CHAPEL", "facility_t": "9", "placeid": "7502", "sos": "2", "borough": "1" }, "geometry": { "type": "Point", "coordinates": [ -73.960883294042389, 40.80780439997023 ] } },
{ "type": "Feature", "properties": { "name": "SQUADRON A ARMORY", "facility_t": "3", "placeid": "7592", "sos": "2", "borough": "1" }, "geometry": { "type": "Point", "coordinates": [ -73.953957634234115, 40.785674329935304 ] } },
{ "type": "Feature", "properties": { "name": "RIVERSIDE PARK 146 & 147 BASEBALL FIELDS", "facility_t": "4", "placeid": "1193", "sos": "1", "borough": "1" }, "geometry": { "type": "Point", "coordinates": [ -73.952918896077151, 40.828960026935931 ] } },
{ "type": "Feature", "properties": { "name": "OVER THE TRACKS TENNIS COURTS", "facility_t": "4", "placeid": "1195", "sos": "1", "borough": "1" }, "geometry": { "type": "Point", "coordinates": [ -73.965325914261001, 40.811987463584209 ] } },
{ "type": "Feature", "properties": { "name": "CENTRAL PARK CHARLES A DANA DISCOVERY CENTER", "facility_t": "4", "placeid": "1212", "sos": "1", "borough": "1" }, "geometry": { "type": "Point", "coordinates": [ -73.951446755224339, 40.79710628294788 ] } },
{ "type": "Feature", "properties": { "name": "DUKE ELLINGTON CIRCLE", "facility_t": "4", "placeid": "1213", "sos": null, "borough": "1" }, "geometry": { "type": "Point", "coordinates": [ -73.949483525546043, 40.796971848343667 ] } },
{ "type": "Feature", "properties": { "name": "CENTRAL PARK UNTERMYER FOUNTAIN", "facility_t": "4", "placeid": "1215", "sos": "1", "borough": "1" }, "geometry": { "type": "Point", "coordinates": [ -73.951947965290287, 40.794249985220695 ] } },
{ "type": "Feature", "properties": { "name": "CENTRAL PARK KING JAGIELLO STATUE", "facility_t": "4", "placeid": "1217", "sos": "1", "borough": "1" }, "geometry": { "type": "Point", "coordinates": [ -73.966671513869272, 40.77891419936428 ] } },
{ "type": "Feature", "properties": { "name": "CENTRAL PARK HERNSHEAD", "facility_t": "4", "placeid": "1219", "sos": "2", "borough": "1" }, "geometry": { "type": "Point", "coordinates": [ -73.972797290935247, 40.777511767045141 ] } },
{ "type": "Feature", "properties": { "name": "TIMES SQUARE CHURCH", "facility_t": "9", "placeid": "5886", "sos": "2", "borough": "1" }, "geometry": { "type": "Point", "coordinates": [ -73.984331182661961, 40.762581594606843 ] } },
{ "type": "Feature", "properties": { "name": "BENNETT REST", "facility_t": "4", "placeid": "1584", "sos": "1", "borough": "1" }, "geometry": { "type": "Point", "coordinates": [ -73.938626050185078, 40.856168103728123 ] } },
{ "type": "Feature", "properties": { "name": "FIRST PRESBYTERIAN CHURCH", "facility_t": "9", "placeid": "15257", "sos": "1", "borough": "1" }, "geometry": { "type": "Point", "coordinates": [ -73.99516513579978, 40.73450008482849 ] } },
{ "type": "Feature", "properties": { "name": "DIA ART FOUNDATION CHELSEA GALLERY", "facility_t": "3", "placeid": "5867", "sos": "2", "borough": "1" }, "geometry": { "type": "Point", "coordinates": [ -74.006167910055609, 40.747845529815905 ] } },
{ "type": "Feature", "properties": { "name": "CHABAD LUBAVITCH OF MIDTOWN", "facility_t": "9", "placeid": "13842", "sos": "2", "borough": "1" }, "geometry": { "type": "Point", "coordinates": [ -73.980321489414507, 40.7537749799015 ] } },
{ "type": "Feature", "properties": { "name": "SAKURA PARK", "facility_t": "4", "placeid": "467", "sos": "2", "borough": "1" }, "geometry": { "type": "Point", "coordinates": [ -73.962166808058569, 40.813007033421286 ] } },
{ "type": "Feature", "properties": { "name": "JOSEPH C SAUER PARK", "facility_t": "4", "placeid": "621", "sos": "2", "borough": "1" }, "geometry": { "type": "Point", "coordinates": [ -73.979753046907504, 40.728232312645929 ] } },
{ "type": "Feature", "properties": { "name": "LOUIS CUVILLIER PARK", "facility_t": "4", "placeid": "636", "sos": "1", "borough": "1" }, "geometry": { "type": "Point", "coordinates": [ -73.930783627559236, 40.800895928938026 ] } },
{ "type": "Feature", "properties": { "name": "EUGENE MCCABE FIELD", "facility_t": "4", "placeid": "769", "sos": "1", "borough": "1" }, "geometry": { "type": "Point", "coordinates": [ -73.941630726479701, 40.802445296655982 ] } },
{ "type": "Feature", "properties": { "name": "ASPHALT GREEN FIELD UPPER EAST SIDE", "facility_t": "4", "placeid": "815", "sos": "2", "borough": "1" }, "geometry": { "type": "Point", "coordinates": [ -73.944291774997779, 40.778576232325115 ] } },
{ "type": "Feature", "properties": { "name": "RUPPERT PARK", "facility_t": "4", "placeid": "816", "sos": "1", "borough": "1" }, "geometry": { "type": "Point", "coordinates": [ -73.950209882725147, 40.780913416768087 ] } },
{ "type": "Feature", "properties": { "name": "FIRST PARK", "facility_t": "4", "placeid": "818", "sos": "1", "borough": "1" }, "geometry": { "type": "Point", "coordinates": [ -73.989580759212203, 40.723497979093004 ] } },
{ "type": "Feature", "properties": { "name": "PETER'S FIELD", "facility_t": "4", "placeid": "828", "sos": "1", "borough": "1" }, "geometry": { "type": "Point", "coordinates": [ -73.981642257549012, 40.736158375665141 ] } },
{ "type": "Feature", "properties": { "name": "TAVERN ON THE GREEN", "facility_t": "4", "placeid": "836", "sos": "2", "borough": "1" }, "geometry": { "type": "Point", "coordinates": [ -73.977813058684802, 40.772182824137111 ] } },
{ "type": "Feature", "properties": { "name": "PULITZER FOUNTAIN", "facility_t": "4", "placeid": "839", "sos": "2", "borough": "1" }, "geometry": { "type": "Point", "coordinates": [ -73.973617785913049, 40.764031165553661 ] } },
{ "type": "Feature", "properties": { "name": "EAST RIVER PARK AMPHITHEATER", "facility_t": "4", "placeid": "840", "sos": "2", "borough": "1" }, "geometry": { "type": "Point", "coordinates": [ -73.977813798736832, 40.711109830418017 ] } },
{ "type": "Feature", "properties": { "name": "CHURCH OF THE INCARNATION RC", "facility_t": "9", "placeid": "3244", "sos": "2", "borough": "1" }, "geometry": { "type": "Point", "coordinates": [ -73.936469314898915, 40.845105888528558 ] } },
{ "type": "Feature", "properties": { "name": "AMERICAN MUSEUM OF NATURAL HISTORY", "facility_t": "3", "placeid": "7586", "sos": "1", "borough": "1" }, "geometry": { "type": "Point", "coordinates": [ -73.97355951962615, 40.781064857340674 ] } },
{ "type": "Feature", "properties": { "name": "METROPOLITAN KORYO UNITED METHODIST CHURCH", "facility_t": "9", "placeid": "15435", "sos": "2", "borough": "1" }, "geometry": { "type": "Point", "coordinates": [ -73.96612721036432, 40.76362536022399 ] } },
{ "type": "Feature", "properties": { "name": "LA HERMOSA CHRISTIAN CHURCH", "facility_t": "9", "placeid": "15941", "sos": "2", "borough": "1" }, "geometry": { "type": "Point", "coordinates": [ -73.949620952658748, 40.797323752077936 ] } },
{ "type": "Feature", "properties": { "name": "FIRST CORINTHIAN BAPTIST CHURCH", "facility_t": "9", "placeid": "15956", "sos": "1", "borough": "1" }, "geometry": { "type": "Point", "coordinates": [ -73.953029399442443, 40.80310949481683 ] } },
{ "type": "Feature", "properties": { "name": "MANHATTAN CTR AUDITORIUM", "facility_t": "3", "placeid": "16000", "sos": "2", "borough": "1" }, "geometry": { "type": "Point", "coordinates": [ -73.994187614186572, 40.752911450292892 ] } },
{ "type": "Feature", "properties": { "name": "WALL ST SYNAGOGUE", "facility_t": "9", "placeid": "3199", "sos": "2", "borough": "1" }, "geometry": { "type": "Point", "coordinates": [ -74.005420938520245, 40.710046208612852 ] } },
{ "type": "Feature", "properties": { "name": "HIGH BRIDGE PLAY CENTER", "facility_t": "4", "placeid": "12820", "sos": "2", "borough": "1" }, "geometry": { "type": "Point", "coordinates": [ -73.93432063507106, 40.842644377214206 ] } },
{ "type": "Feature", "properties": { "name": "MORRIS CANAL BASIN", "facility_t": "12", "placeid": "6136", "sos": "1", "borough": "1" }, "geometry": { "type": "Point", "coordinates": [ -74.045143740033922, 40.711061257524122 ] } },
{ "type": "Feature", "properties": { "name": "CENTRAL PARK WIEN WALK", "facility_t": "4", "placeid": "6870", "sos": "2", "borough": "1" }, "geometry": { "type": "Point", "coordinates": [ -73.972357408334915, 40.76583437299378 ] } },
{ "type": "Feature", "properties": { "name": "PEACEFUL VALLEY COMMUNITY GARDEN", "facility_t": "4", "placeid": "6664", "sos": "2", "borough": "1" }, "geometry": { "type": "Point", "coordinates": [ -73.944150269098657, 40.800449736811295 ] } },
{ "type": "Feature", "properties": { "name": "UNITY PARK", "facility_t": "4", "placeid": "6669", "sos": "2", "borough": "1" }, "geometry": { "type": "Point", "coordinates": [ -73.942680020397873, 40.809301178336881 ] } },
{ "type": "Feature", "properties": { "name": "PETROSINO SQUARE", "facility_t": "13", "placeid": "6671", "sos": "1", "borough": "1" }, "geometry": { "type": "Point", "coordinates": [ -73.997443243471139, 40.721700855833376 ] } },
{ "type": "Feature", "properties": { "name": "GRAND CANAL COURT", "facility_t": "4", "placeid": "6680", "sos": "1", "borough": "1" }, "geometry": { "type": "Point", "coordinates": [ -74.00502835579195, 40.722305242116867 ] } },
{ "type": "Feature", "properties": { "name": "ST BARTHOLOMEWS CHURCH", "facility_t": "9", "placeid": "15246", "sos": "1", "borough": "1" }, "geometry": { "type": "Point", "coordinates": [ -73.973240835972931, 40.757369766632131 ] } },
{ "type": "Feature", "properties": { "name": "ELMENDORF REFORMED CHURCH", "facility_t": "9", "placeid": "15250", "sos": "1", "borough": "1" }, "geometry": { "type": "Point", "coordinates": [ -73.938320851740528, 40.801604668351246 ] } },
{ "type": "Feature", "properties": { "name": "ALL SOULS CHURCH WEST HARLEM", "facility_t": "9", "placeid": "15264", "sos": "2", "borough": "1" }, "geometry": { "type": "Point", "coordinates": [ -73.952260975578284, 40.801742875213762 ] } },
{ "type": "Feature", "properties": { "name": "ST ELEFTHERIOS CHURCH", "facility_t": "9", "placeid": "3186", "sos": "2", "borough": "1" }, "geometry": { "type": "Point", "coordinates": [ -74.000132892168011, 40.74715348850448 ] } },
{ "type": "Feature", "properties": { "name": "BETHANY BAPTIST CHURCH", "facility_t": "9", "placeid": "3577", "sos": "2", "borough": "1" }, "geometry": { "type": "Point", "coordinates": [ -73.938698715646439, 40.828238437656964 ] } },
{ "type": "Feature", "properties": { "name": "BUTTERMILK CHANNEL", "facility_t": "12", "placeid": "6337", "sos": "1", "borough": "1" }, "geometry": { "type": "Point", "coordinates": [ -74.014710345841451, 40.684833650956961 ] } },
{ "type": "Feature", "properties": { "name": "NEW YORK THEATRE WORKSHOP", "facility_t": "3", "placeid": "5881", "sos": "1", "borough": "1" }, "geometry": { "type": "Point", "coordinates": [ -73.990034653567875, 40.726628383596612 ] } },
{ "type": "Feature", "properties": { "name": "RIVERSIDE PARK W 72 ST DOG RUN", "facility_t": "4", "placeid": "14772", "sos": "1", "borough": "1" }, "geometry": { "type": "Point", "coordinates": [ -73.986524844918208, 40.781161767642608 ] } },
{ "type": "Feature", "properties": { "name": "ADMIRAL DEWEY PROMENADE", "facility_t": "4", "placeid": "14786", "sos": "2", "borough": "1" }, "geometry": { "type": "Point", "coordinates": [ -74.015511543780448, 40.701235057583823 ] } },
{ "type": "Feature", "properties": { "name": "ADVENT LUTHERAN CHURCH", "facility_t": "9", "placeid": "16099", "sos": "2", "borough": "1" }, "geometry": { "type": "Point", "coordinates": [ -73.972790353718025, 40.792722206933945 ] } },
{ "type": "Feature", "properties": { "name": "BLESSED SACRAMENT CHURCH", "facility_t": "9", "placeid": "16101", "sos": "1", "borough": "1" }, "geometry": { "type": "Point", "coordinates": [ -73.981128341350313, 40.777307275285388 ] } },
{ "type": "Feature", "properties": { "name": "METROPOLITAN SYNAGOGUE NY", "facility_t": "9", "placeid": "16106", "sos": "2", "borough": "1" }, "geometry": { "type": "Point", "coordinates": [ -73.981394215365199, 40.747830537658366 ] } },
{ "type": "Feature", "properties": { "name": "CBS BUILDING", "facility_t": "7", "placeid": "16242", "sos": "2", "borough": "1" }, "geometry": { "type": "Point", "coordinates": [ -73.978818786677778, 40.76117732794409 ] } },
{ "type": "Feature", "properties": { "name": "AMERICAN STOCK EXCHANGE BUILDING", "facility_t": "13", "placeid": "16244", "sos": "1", "borough": "1" }, "geometry": { "type": "Point", "coordinates": [ -74.012663928073763, 40.708639427907997 ] } },
{ "type": "Feature", "properties": { "name": "DAILY NEWS BUILDING", "facility_t": "7", "placeid": "16258", "sos": "2", "borough": "1" }, "geometry": { "type": "Point", "coordinates": [ -73.973407742573173, 40.749994360081885 ] } },
{ "type": "Feature", "properties": { "name": "FULTON FISH MARKET", "facility_t": "7", "placeid": "16259", "sos": "2", "borough": "1" }, "geometry": { "type": "Point", "coordinates": [ -74.001552195243789, 40.7064384167276 ] } },
{ "type": "Feature", "properties": { "name": "CHASE BANK PARK AV", "facility_t": "7", "placeid": "16266", "sos": "2", "borough": "1" }, "geometry": { "type": "Point", "coordinates": [ -73.974201145250603, 40.755228207199835 ] } },
{ "type": "Feature", "properties": { "name": "MARINE MIDLAND BUILDING", "facility_t": "7", "placeid": "16270", "sos": "2", "borough": "1" }, "geometry": { "type": "Point", "coordinates": [ -74.010123756670282, 40.708674791497579 ] } },
{ "type": "Feature", "properties": { "name": "HOLY CROSS CHURCH", "facility_t": "9", "placeid": "3175", "sos": "2", "borough": "1" }, "geometry": { "type": "Point", "coordinates": [ -73.99118447758508, 40.758086251615943 ] } },
{ "type": "Feature", "properties": { "name": "GRACE CHURCH", "facility_t": "9", "placeid": "16341", "sos": "2", "borough": "1" }, "geometry": { "type": "Point", "coordinates": [ -73.990938646298034, 40.731995961833846 ] } },
{ "type": "Feature", "properties": { "name": "ST JEAN BAPTISTE RC CHURCH", "facility_t": "9", "placeid": "4208", "sos": "2", "borough": "1" }, "geometry": { "type": "Point", "coordinates": [ -73.959906440069773, 40.772644442048254 ] } },
{ "type": "Feature", "properties": { "name": "OUR LADY QUEEN OF MARTYRS RECTORY", "facility_t": "9", "placeid": "3522", "sos": "2", "borough": "1" }, "geometry": { "type": "Point", "coordinates": [ -73.928210699048819, 40.863944094275624 ] } },
{ "type": "Feature", "properties": { "name": "ALL SAINTS RC CHURCH", "facility_t": "9", "placeid": "3562", "sos": "1", "borough": "1" }, "geometry": { "type": "Point", "coordinates": [ -73.938366635990022, 40.808355810114058 ] } },
{ "type": "Feature", "properties": { "name": "SHILOH CHURCH CHRIST DISCIPLES", "facility_t": "9", "placeid": "12673", "sos": "2", "borough": "1" }, "geometry": { "type": "Point", "coordinates": [ -73.941289398595586, 40.808756242779225 ] } },
{ "type": "Feature", "properties": { "name": "ONE UN NEW YORK", "facility_t": "7", "placeid": "16325", "sos": "1", "borough": "1" }, "geometry": { "type": "Point", "coordinates": [ -73.969182466562714, 40.75053844041296 ] } },
{ "type": "Feature", "properties": { "name": "FLATIRON BUILDING", "facility_t": "13", "placeid": "17689", "sos": "1", "borough": "1" }, "geometry": { "type": "Point", "coordinates": [ -73.989641326960552, 40.741074049854525 ] } },
{ "type": "Feature", "properties": { "name": "THOMAS JEFFERSON BATH HOUSE", "facility_t": "4", "placeid": "18606", "sos": "2", "borough": "1" }, "geometry": { "type": "Point", "coordinates": [ -73.936676929566644, 40.793749861586328 ] } },
{ "type": "Feature", "properties": { "name": "EAST RIVER ESPLANADE AT E 125 STREET", "facility_t": "4", "placeid": "15509", "sos": "2", "borough": "1" }, "geometry": { "type": "Point", "coordinates": [ -73.929069984575136, 40.801061554878927 ] } },
{ "type": "Feature", "properties": { "name": "CHELSEA PIERS SKY RINK", "facility_t": "13", "placeid": "18580", "sos": "1", "borough": "1" }, "geometry": { "type": "Point", "coordinates": [ -74.010051031207482, 40.747671569151173 ] } },
{ "type": "Feature", "properties": { "name": "MADISON SQUARE GARDEN", "facility_t": "4", "placeid": "5971", "sos": "1", "borough": "1" }, "geometry": { "type": "Point", "coordinates": [ -73.993370527060023, 40.75047534870243 ] } },
{ "type": "Feature", "properties": { "name": "PARK EAST SYNAGOGUE", "facility_t": "9", "placeid": "4244", "sos": "1", "borough": "1" }, "geometry": { "type": "Point", "coordinates": [ -73.963423550092429, 40.76692163273416 ] } },
{ "type": "Feature", "properties": { "name": "CHELSEA RECREATION CENTER", "facility_t": "4", "placeid": "14761", "sos": "1", "borough": "1" }, "geometry": { "type": "Point", "coordinates": [ -74.002284728891183, 40.748337878702465 ] } },
{ "type": "Feature", "properties": { "name": "THEODORE ROOSEVELT BIRTHPLACE", "facility_t": "13", "placeid": "5426", "sos": "2", "borough": "1" }, "geometry": { "type": "Point", "coordinates": [ -73.989039779657787, 40.738634655954591 ] } },
{ "type": "Feature", "properties": { "name": "EMPIRE STATE BUILDING", "facility_t": "13", "placeid": "5810", "sos": "1", "borough": "1" }, "geometry": { "type": "Point", "coordinates": [ -73.985322454067003, 40.748429273760841 ] } },
{ "type": "Feature", "properties": { "name": "MORNINGSIDE HEIGHTS LIBRARY", "facility_t": "3", "placeid": "5825", "sos": "2", "borough": "1" }, "geometry": { "type": "Point", "coordinates": [ -73.964775616364065, 40.806130257852331 ] } },
{ "type": "Feature", "properties": { "name": "YMCA CHINATOWN HESTER STREET CENTER", "facility_t": "3", "placeid": "5830", "sos": "1", "borough": "1" }, "geometry": { "type": "Point", "coordinates": [ -73.993334230932092, 40.71620056260074 ] } },
{ "type": "Feature", "properties": { "name": "YMCA CHINATOWN CORNERSTONE 2 BRIDGES OMMUNITY CENTER", "facility_t": "3", "placeid": "18441", "sos": "1", "borough": "1" }, "geometry": { "type": "Point", "coordinates": [ -73.986175796538731, 40.71075090531869 ] } },
{ "type": "Feature", "properties": { "name": "TRIENNALE DESIGN MUSEUM", "facility_t": "3", "placeid": "5863", "sos": null, "borough": "1" }, "geometry": { "type": "Point", "coordinates": [ -73.977985752105639, 40.761074267015566 ] } },
{ "type": "Feature", "properties": { "name": "MUSEUM OF AMERICAN FINANCIAL HISTORY", "facility_t": "3", "placeid": "5864", "sos": "1", "borough": "1" }, "geometry": { "type": "Point", "coordinates": [ -74.009160189305604, 40.706479805108003 ] } },
{ "type": "Feature", "properties": { "name": "MUSEUM OF ARTS AND DESIGN", "facility_t": "3", "placeid": "5866", "sos": "1", "borough": "1" }, "geometry": { "type": "Point", "coordinates": [ -73.981985995157046, 40.767404199413065 ] } },
{ "type": "Feature", "properties": { "name": "JEFFERSON MARKET LIBRARY", "facility_t": "3", "placeid": "5887", "sos": "1", "borough": "1" }, "geometry": { "type": "Point", "coordinates": [ -73.999077823995947, 40.734660440126113 ] } },
{ "type": "Feature", "properties": { "name": "HARVARD CLUB", "facility_t": "3", "placeid": "5894", "sos": "2", "borough": "1" }, "geometry": { "type": "Point", "coordinates": [ -73.981587592984695, 40.755698398688985 ] } },
{ "type": "Feature", "properties": { "name": "SHUBERT THEATRE", "facility_t": "3", "placeid": "5900", "sos": "2", "borough": "1" }, "geometry": { "type": "Point", "coordinates": [ -73.987299760042887, 40.75808627146872 ] } },
{ "type": "Feature", "properties": { "name": "NEW YORK CITY HISTORICAL SOCIETY", "facility_t": "3", "placeid": "5943", "sos": "1", "borough": "1" }, "geometry": { "type": "Point", "coordinates": [ -73.974267962417656, 40.779262127181127 ] } },
{ "type": "Feature", "properties": { "name": "KAUFMAN CONCERT HALL", "facility_t": "3", "placeid": "5944", "sos": "2", "borough": "1" }, "geometry": { "type": "Point", "coordinates": [ -73.95275815710761, 40.782988920966943 ] } },
{ "type": "Feature", "properties": { "name": "TRANSIT MUSEUM GALLERY ANNEX & STORE", "facility_t": "3", "placeid": "5967", "sos": "1", "borough": "1" }, "geometry": { "type": "Point", "coordinates": [ -73.977137743697583, 40.7527096741252 ] } },
{ "type": "Feature", "properties": { "name": "MID MANHATTAN LIBRARY", "facility_t": "3", "placeid": "5968", "sos": "2", "borough": "1" }, "geometry": { "type": "Point", "coordinates": [ -73.981682894988097, 40.751892656871782 ] } },
{ "type": "Feature", "properties": { "name": "MUSEUM OF THE AMERICAN INDIAN", "facility_t": "3", "placeid": "5973", "sos": "1", "borough": "1" }, "geometry": { "type": "Point", "coordinates": [ -74.01349088657993, 40.704213354139156 ] } },
{ "type": "Feature", "properties": { "name": "FEDERAL HALL NATIONAL MEMORIAL", "facility_t": "3", "placeid": "5975", "sos": "2", "borough": "1" }, "geometry": { "type": "Point", "coordinates": [ -74.010352698292394, 40.707222382299321 ] } },
{ "type": "Feature", "properties": { "name": "MARBLE COLLEGIATE CHURCH", "facility_t": "9", "placeid": "17387", "sos": "2", "borough": "1" }, "geometry": { "type": "Point", "coordinates": [ -73.987118624608044, 40.745659233242733 ] } },
{ "type": "Feature", "properties": { "name": "RIVERSIDE PARK", "facility_t": "4", "placeid": "17522", "sos": "2", "borough": "1" }, "geometry": { "type": "Point", "coordinates": [ -73.973359107995421, 40.800245872565142 ] } },
{ "type": "Feature", "properties": { "name": "LOWER EAST SIDE TENEMENT MUSEUM", "facility_t": "3", "placeid": "5404", "sos": "1", "borough": "1" }, "geometry": { "type": "Point", "coordinates": [ -73.990050204801818, 40.718766386451136 ] } },
{ "type": "Feature", "properties": { "name": "WNYW OFFICE", "facility_t": "7", "placeid": "14222", "sos": "1", "borough": "1" }, "geometry": { "type": "Point", "coordinates": [ -73.962244453743821, 40.766452789846994 ] } },
{ "type": "Feature", "properties": { "name": "TIFFANYS", "facility_t": "7", "placeid": "11430", "sos": "2", "borough": "1" }, "geometry": { "type": "Point", "coordinates": [ -73.973774524910866, 40.762593936806041 ] } },
{ "type": "Feature", "properties": { "name": "ST SAVA SERBIAN ORTHO CHURCH", "facility_t": "9", "placeid": "3154", "sos": "2", "borough": "1" }, "geometry": { "type": "Point", "coordinates": [ -73.989957323415823, 40.743598116502078 ] } },
{ "type": "Feature", "properties": { "name": "VALLE DECEDRON CHURCH", "facility_t": "9", "placeid": "3643", "sos": "1", "borough": "1" }, "geometry": { "type": "Point", "coordinates": [ -73.941205426662989, 40.793655242592351 ] } },
{ "type": "Feature", "properties": { "name": "21 CLUB", "facility_t": "7", "placeid": "5421", "sos": "2", "borough": "1" }, "geometry": { "type": "Point", "coordinates": [ -73.977420178753036, 40.760473331630045 ] } },
{ "type": "Feature", "properties": { "name": "15 PENN PLZ", "facility_t": "13", "placeid": "8923", "sos": "2", "borough": "1" }, "geometry": { "type": "Point", "coordinates": [ -73.990906895455367, 40.74990295010366 ] } },
{ "type": "Feature", "properties": { "name": "ARMENIAN EVANGELICAL CHURCH", "facility_t": "9", "placeid": "3776", "sos": "2", "borough": "1" }, "geometry": { "type": "Point", "coordinates": [ -73.97901100209495, 40.745885597841394 ] } },
{ "type": "Feature", "properties": { "name": "ST MALACHYS CHURCH", "facility_t": "9", "placeid": "3764", "sos": "2", "borough": "1" }, "geometry": { "type": "Point", "coordinates": [ -73.985618310289922, 40.761491907887894 ] } },
{ "type": "Feature", "properties": { "name": "INTERNATIONAL CENTER OF PHOTOGRAPHY SCHOOL & LIBRARY", "facility_t": "3", "placeid": "12851", "sos": "1", "borough": "1" }, "geometry": { "type": "Point", "coordinates": [ -73.982672287056005, 40.754838308153744 ] } },
{ "type": "Feature", "properties": { "name": "MUSEUM OF MODERN ART (MOMA)", "facility_t": "3", "placeid": "13782", "sos": "2", "borough": "1" }, "geometry": { "type": "Point", "coordinates": [ -73.977129572075171, 40.761158327025406 ] } },
{ "type": "Feature", "properties": { "name": "NEW AMSTERDAM THEATRE", "facility_t": "3", "placeid": "13792", "sos": "1", "borough": "1" }, "geometry": { "type": "Point", "coordinates": [ -73.98805154828834, 40.755916103997258 ] } },
{ "type": "Feature", "properties": { "name": "ITALIAN CULTURAL INSTITUTE", "facility_t": "3", "placeid": "13796", "sos": "1", "borough": "1" }, "geometry": { "type": "Point", "coordinates": [ -73.965776040689093, 40.768958313025905 ] } },
{ "type": "Feature", "properties": { "name": "MADAME TUSSAUD'S WAX MUSEUM", "facility_t": "3", "placeid": "13803", "sos": "1", "borough": "1" }, "geometry": { "type": "Point", "coordinates": [ -73.988789981536996, 40.75636941919543 ] } },
{ "type": "Feature", "properties": { "name": "EL MUSEO DEL BARRIO", "facility_t": "3", "placeid": "13811", "sos": "2", "borough": "1" }, "geometry": { "type": "Point", "coordinates": [ -73.951409547914366, 40.793363017365273 ] } },
{ "type": "Feature", "properties": { "name": "HAYDEN PLANETARIUM", "facility_t": "3", "placeid": "14148", "sos": "1", "borough": "1" }, "geometry": { "type": "Point", "coordinates": [ -73.973237265511401, 40.781561235901613 ] } },
{ "type": "Feature", "properties": { "name": "NEW YORK UNEARTHED", "facility_t": "3", "placeid": "18592", "sos": "2", "borough": "1" }, "geometry": { "type": "Point", "coordinates": [ -74.013999401234969, 40.702891849843006 ] } },
{ "type": "Feature", "properties": { "name": "ABYSSINIAN BAPTIST CHURCH", "facility_t": "9", "placeid": "1614", "sos": "1", "borough": "1" }, "geometry": { "type": "Point", "coordinates": [ -73.941294765231703, 40.816634948962324 ] } },
{ "type": "Feature", "properties": { "name": "BELOVED DISCIPLE CHAPEL", "facility_t": "9", "placeid": "3666", "sos": "2", "borough": "1" }, "geometry": { "type": "Point", "coordinates": [ -73.957920721418205, 40.783639407371993 ] } },
{ "type": "Feature", "properties": { "name": "ST PETER LUTHERAN CHURCH", "facility_t": "9", "placeid": "3588", "sos": "2", "borough": "1" }, "geometry": { "type": "Point", "coordinates": [ -73.970359685104881, 40.758753609943518 ] } },
{ "type": "Feature", "properties": { "name": "SHELBY CULLOM DAVIS MUSEUM", "facility_t": "3", "placeid": "13930", "sos": "2", "borough": "1" }, "geometry": { "type": "Point", "coordinates": [ -73.984711394622522, 40.773786200258094 ] } },
{ "type": "Feature", "properties": { "name": "RIVERSIDE LIBRARY", "facility_t": "3", "placeid": "13931", "sos": "2", "borough": "1" }, "geometry": { "type": "Point", "coordinates": [ -73.984512161844052, 40.774232078322463 ] } },
{ "type": "Feature", "properties": { "name": "ED SULLIVAN THEATER", "facility_t": "3", "placeid": "13932", "sos": "1", "borough": "1" }, "geometry": { "type": "Point", "coordinates": [ -73.982921909184896, 40.763807623256476 ] } },
{ "type": "Feature", "properties": { "name": "CIRCLE IN THE SQUARE THEATER", "facility_t": "3", "placeid": "13937", "sos": "1", "borough": "1" }, "geometry": { "type": "Point", "coordinates": [ -73.984298287917099, 40.762044691530029 ] } },
{ "type": "Feature", "properties": { "name": "TERRENCE CARDINAL COOKE CATHEDRAL LIBRARY", "facility_t": "3", "placeid": "13938", "sos": "1", "borough": "1" }, "geometry": { "type": "Point", "coordinates": [ -73.972540827242369, 40.756802349853572 ] } },
{ "type": "Feature", "properties": { "name": "SCIENCE INDUSTRY AND BUSINESS LIBRARY", "facility_t": "3", "placeid": "13939", "sos": "1", "borough": "1" }, "geometry": { "type": "Point", "coordinates": [ -73.982992467572657, 40.748144651026315 ] } },
{ "type": "Feature", "properties": { "name": "HAMILTON FISH PARK LIBRARY", "facility_t": "3", "placeid": "13941", "sos": "2", "borough": "1" }, "geometry": { "type": "Point", "coordinates": [ -73.979423144540391, 40.719780154265834 ] } },
{ "type": "Feature", "properties": { "name": "GUARDIAN ANGEL RC CHURCH", "facility_t": "9", "placeid": "4171", "sos": "1", "borough": "1" }, "geometry": { "type": "Point", "coordinates": [ -74.005250804356919, 40.74663057698622 ] } },
{ "type": "Feature", "properties": { "name": "MANHATTAN MINI STORAGE 220 SOUTH ST", "facility_t": "7", "placeid": "2479", "sos": "1", "borough": "1" }, "geometry": { "type": "Point", "coordinates": [ -73.995517306919325, 40.709526641275893 ] } },
{ "type": "Feature", "properties": { "name": "BETHEL WAY THE CROSS CHURCH", "facility_t": "9", "placeid": "3738", "sos": "2", "borough": "1" }, "geometry": { "type": "Point", "coordinates": [ -73.94679858903784, 40.80268524718128 ] } },
{ "type": "Feature", "properties": { "name": "VERDI SQUARE", "facility_t": "13", "placeid": "17706", "sos": "1", "borough": "1" }, "geometry": { "type": "Point", "coordinates": [ -73.981533591698408, 40.779111265766979 ] } },
{ "type": "Feature", "properties": { "name": "OUR LADY OF POMPEII CHURCH", "facility_t": "9", "placeid": "10553", "sos": "2", "borough": "1" }, "geometry": { "type": "Point", "coordinates": [ -74.002864079505926, 40.730402658316592 ] } },
{ "type": "Feature", "properties": { "name": "RAMADA NY EASTSIDE", "facility_t": "7", "placeid": "16740", "sos": "2", "borough": "1" }, "geometry": { "type": "Point", "coordinates": [ -73.981314332116327, 40.743926358665249 ] } },
{ "type": "Feature", "properties": { "name": "MACYS HERALD SQUARE", "facility_t": "7", "placeid": "16743", "sos": "2", "borough": "1" }, "geometry": { "type": "Point", "coordinates": [ -73.989831604048547, 40.751083446391405 ] } },
{ "type": "Feature", "properties": { "name": "SEAGRAM BUILDING", "facility_t": "7", "placeid": "16747", "sos": "2", "borough": "1" }, "geometry": { "type": "Point", "coordinates": [ -73.972214473292695, 40.758472137536707 ] } },
{ "type": "Feature", "properties": { "name": "FRAUNCES TAVERN MUSEUM", "facility_t": "3", "placeid": "13926", "sos": "2", "borough": "1" }, "geometry": { "type": "Point", "coordinates": [ -74.011358629783487, 40.703409224920485 ] } },
{ "type": "Feature", "properties": { "name": "MUHLENBERG LIBRARY", "facility_t": "3", "placeid": "16678", "sos": "2", "borough": "1" }, "geometry": { "type": "Point", "coordinates": [ -73.995968569658075, 40.744487330470456 ] } },
{ "type": "Feature", "properties": { "name": "AIR INDIA", "facility_t": "7", "placeid": "16895", "sos": "1", "borough": "1" }, "geometry": { "type": "Point", "coordinates": [ -73.97232953037053, 40.756955744347735 ] } },
{ "type": "Feature", "properties": { "name": "STUYVESANT TOWN COMMUNITY CENTER", "facility_t": "4", "placeid": "12976", "sos": "2", "borough": "1" }, "geometry": { "type": "Point", "coordinates": [ -73.980580471986045, 40.731838689895014 ] } },
{ "type": "Feature", "properties": { "name": "METROPOLITAN LIFE TOWER", "facility_t": "7", "placeid": "12993", "sos": "2", "borough": "1" }, "geometry": { "type": "Point", "coordinates": [ -73.987376163772637, 40.741034756034914 ] } },
{ "type": "Feature", "properties": { "name": "WALL STREET PLAZA", "facility_t": "7", "placeid": "13157", "sos": "1", "borough": "1" }, "geometry": { "type": "Point", "coordinates": [ -74.006081732635465, 40.705680848819355 ] } },
{ "type": "Feature", "properties": { "name": "BROADHURST THEATRE", "facility_t": "3", "placeid": "5823", "sos": "2", "borough": "1" }, "geometry": { "type": "Point", "coordinates": [ -73.987655089156732, 40.758223340423307 ] } },
{ "type": "Feature", "properties": { "name": "ST CHARLES CHURCH", "facility_t": "9", "placeid": "3687", "sos": "2", "borough": "1" }, "geometry": { "type": "Point", "coordinates": [ -73.941640830079294, 40.819613416544478 ] } },
{ "type": "Feature", "properties": { "name": "PARAMOUNT PLAZA", "facility_t": "13", "placeid": "13172", "sos": "1", "borough": "1" }, "geometry": { "type": "Point", "coordinates": [ -73.984374738478252, 40.761941100442847 ] } },
{ "type": "Feature", "properties": { "name": "CON EDISON POWER PLANT AVE C", "facility_t": "7", "placeid": "13175", "sos": "2", "borough": "1" }, "geometry": { "type": "Point", "coordinates": [ -73.974248684868968, 40.730014365187657 ] } },
{ "type": "Feature", "properties": { "name": "GENERAL MOTORS BUILDING", "facility_t": "13", "placeid": "17058", "sos": "2", "borough": "1" }, "geometry": { "type": "Point", "coordinates": [ -73.972652133463455, 40.76351365143956 ] } },
{ "type": "Feature", "properties": { "name": "SPERRY RAND BUILDING", "facility_t": "13", "placeid": "17061", "sos": "2", "borough": "1" }, "geometry": { "type": "Point", "coordinates": [ -73.97932189038832, 40.760661269376492 ] } },
{ "type": "Feature", "properties": { "name": "GENERAL ELECTRIC BUILDING", "facility_t": "13", "placeid": "17063", "sos": "1", "borough": "1" }, "geometry": { "type": "Point", "coordinates": [ -73.972282633462655, 40.757027842437545 ] } },
{ "type": "Feature", "properties": { "name": "GENERAL GRANT NATIONAL MONUMENT", "facility_t": "13", "placeid": "9909", "sos": "1", "borough": "1" }, "geometry": { "type": "Point", "coordinates": [ -73.963059479897524, 40.813415823670205 ] } },
{ "type": "Feature", "properties": { "name": "MOTHER AME ZION CHURCH", "facility_t": "9", "placeid": "14744", "sos": "1", "borough": "1" }, "geometry": { "type": "Point", "coordinates": [ -73.941756077740251, 40.815999652337545 ] } },
{ "type": "Feature", "properties": { "name": "HOUSE OF THE REDEEMER", "facility_t": "9", "placeid": "17252", "sos": "1", "borough": "1" }, "geometry": { "type": "Point", "coordinates": [ -73.955285531511009, 40.786973309101178 ] } },
{ "type": "Feature", "properties": { "name": "CHURCH OF THE GOOD NEIGHBOR", "facility_t": "9", "placeid": "3667", "sos": "1", "borough": "1" }, "geometry": { "type": "Point", "coordinates": [ -73.946903676273834, 40.792725746432957 ] } },
{ "type": "Feature", "properties": { "name": "JEWISH THEOLOGICAL SEMINARY", "facility_t": "9", "placeid": "13281", "sos": "2", "borough": "1" }, "geometry": { "type": "Point", "coordinates": [ -73.960420505319917, 40.811760795289651 ] } },
{ "type": "Feature", "properties": { "name": "JOYCE THEATRE", "facility_t": "3", "placeid": "13465", "sos": "1", "borough": "1" }, "geometry": { "type": "Point", "coordinates": [ -74.000574077121755, 40.7428074664126 ] } },
{ "type": "Feature", "properties": { "name": "ST JOHN EVANGELIST CHURCH", "facility_t": "9", "placeid": "17239", "sos": "2", "borough": "1" }, "geometry": { "type": "Point", "coordinates": [ -73.964546372834747, 40.757117563666405 ] } },
{ "type": "Feature", "properties": { "name": "SALVATION & DELIVERANCE CHURCH", "facility_t": "9", "placeid": "17255", "sos": "2", "borough": "1" }, "geometry": { "type": "Point", "coordinates": [ -73.948089161932643, 40.801661318668501 ] } },
{ "type": "Feature", "properties": { "name": "MANHATTAN BAPTIST CHURCH", "facility_t": "9", "placeid": "17378", "sos": "2", "borough": "1" }, "geometry": { "type": "Point", "coordinates": [ -73.954447252229485, 40.815484058951149 ] } },
{ "type": "Feature", "properties": { "name": "14 STREET Y", "facility_t": "3", "placeid": "17393", "sos": "2", "borough": "1" }, "geometry": { "type": "Point", "coordinates": [ -73.98332039267838, 40.731367822978491 ] } },
{ "type": "Feature", "properties": { "name": "ST ILLUMINATORS ARMENIAN APOSTOLIC CATHEDRAL", "facility_t": "9", "placeid": "4254", "sos": "1", "borough": "1" }, "geometry": { "type": "Point", "coordinates": [ -73.980152823796985, 40.741054939379438 ] } },
{ "type": "Feature", "properties": { "name": "WINTER GARDEN THEATRE", "facility_t": "3", "placeid": "13645", "sos": "2", "borough": "1" }, "geometry": { "type": "Point", "coordinates": [ -73.983647701237089, 40.761443846394144 ] } },
{ "type": "Feature", "properties": { "name": "BLOOMINGDALES 59 ST STORE", "facility_t": "7", "placeid": "13747", "sos": "1", "borough": "1" }, "geometry": { "type": "Point", "coordinates": [ -73.966751502589005, 40.762013777503668 ] } },
{ "type": "Feature", "properties": { "name": "WEBSTER LIBRARY", "facility_t": "3", "placeid": "13772", "sos": "1", "borough": "1" }, "geometry": { "type": "Point", "coordinates": [ -73.95132098260153, 40.770628432834961 ] } },
{ "type": "Feature", "properties": { "name": "HERALD SQUARE", "facility_t": "13", "placeid": "877", "sos": "2", "borough": "1" }, "geometry": { "type": "Point", "coordinates": [ -73.987678551360361, 40.75024011190613 ] } },
{ "type": "Feature", "properties": { "name": "NORTH PRESBYTERIAN CHURCH", "facility_t": "9", "placeid": "17386", "sos": "2", "borough": "1" }, "geometry": { "type": "Point", "coordinates": [ -73.944365228916638, 40.83240438874045 ] } },
{ "type": "Feature", "properties": { "name": "HARLEM RIVER PARK E 128 ST 3 AV", "facility_t": "4", "placeid": "357", "sos": "2", "borough": "1" }, "geometry": { "type": "Point", "coordinates": [ -73.934143875301672, 40.806304703581283 ] } },
{ "type": "Feature", "properties": { "name": "MCNALLY PLAZA", "facility_t": "4", "placeid": "361", "sos": "1", "borough": "1" }, "geometry": { "type": "Point", "coordinates": [ -73.929758914181491, 40.848033843096268 ] } },
{ "type": "Feature", "properties": { "name": "THEODORE ROOSEVELT PARK", "facility_t": "4", "placeid": "364", "sos": "1", "borough": "1" }, "geometry": { "type": "Point", "coordinates": [ -73.975064566343846, 40.781773170287984 ] } },
{ "type": "Feature", "properties": { "name": "DONNELLAN SQUARE", "facility_t": "13", "placeid": "375", "sos": "1", "borough": "1" }, "geometry": { "type": "Point", "coordinates": [ -73.942736360382114, 40.827049809115579 ] } },
{ "type": "Feature", "properties": { "name": "HARLEM GROWN 134 STREET FARM", "facility_t": "4", "placeid": "395", "sos": "1", "borough": "1" }, "geometry": { "type": "Point", "coordinates": [ -73.942792267709777, 40.813835116006018 ] } },
{ "type": "Feature", "properties": { "name": "TRIBECA DOG RUN WARREN STREET", "facility_t": "4", "placeid": "405", "sos": "2", "borough": "1" }, "geometry": { "type": "Point", "coordinates": [ -74.012080053717327, 40.716226626897395 ] } },
{ "type": "Feature", "properties": { "name": "OLD CROTON AQUEDUCT GATEHOUSE", "facility_t": "4", "placeid": "417", "sos": "2", "borough": "1" }, "geometry": { "type": "Point", "coordinates": [ -73.959547253820062, 40.808467873890983 ] } },
{ "type": "Feature", "properties": { "name": "HARLEM RIVER DRIVEWAY", "facility_t": "4", "placeid": "430", "sos": "2", "borough": "1" }, "geometry": { "type": "Point", "coordinates": [ -73.934151193335538, 40.812607785836029 ] } },
{ "type": "Feature", "properties": { "name": "EAST RIVER PARK AT E 6 STREET", "facility_t": "4", "placeid": "433", "sos": "2", "borough": "1" }, "geometry": { "type": "Point", "coordinates": [ -73.974052902790277, 40.721509600240033 ] } },
{ "type": "Feature", "properties": { "name": "BATTERY PARK AT WEST STREET", "facility_t": "4", "placeid": "435", "sos": "2", "borough": "1" }, "geometry": { "type": "Point", "coordinates": [ -74.017518108486257, 40.704114555659118 ] } },
{ "type": "Feature", "properties": { "name": "EAST 107 ST RECREATIONAL PIER", "facility_t": "13", "placeid": "440", "sos": "2", "borough": "1" }, "geometry": { "type": "Point", "coordinates": [ -73.936962492514766, 40.789200609007217 ] } },
{ "type": "Feature", "properties": { "name": "FATHER DUFFY SQUARE", "facility_t": "13", "placeid": "1277", "sos": "2", "borough": "1" }, "geometry": { "type": "Point", "coordinates": [ -73.985019903956811, 40.758968345583668 ] } },
{ "type": "Feature", "properties": { "name": "COLLECT POND PARK", "facility_t": "4", "placeid": "1279", "sos": "1", "borough": "1" }, "geometry": { "type": "Point", "coordinates": [ -74.001844183027586, 40.716372185640047 ] } },
{ "type": "Feature", "properties": { "name": "MORNINGSIDE PARK", "facility_t": "4", "placeid": "1283", "sos": "1", "borough": "1" }, "geometry": { "type": "Point", "coordinates": [ -73.958436360564178, 40.80575035278487 ] } },
{ "type": "Feature", "properties": { "name": "ABE LEBEWOHL TRIANGLE", "facility_t": "13", "placeid": "1287", "sos": "2", "borough": "1" }, "geometry": { "type": "Point", "coordinates": [ -73.987790285489496, 40.730080465631197 ] } },
{ "type": "Feature", "properties": { "name": "JACKSON SQUARE", "facility_t": "13", "placeid": "1289", "sos": "2", "borough": "1" }, "geometry": { "type": "Point", "coordinates": [ -74.002887219813658, 40.7389149594282 ] } },
{ "type": "Feature", "properties": { "name": "PERETZ SQUARE", "facility_t": "13", "placeid": "1290", "sos": "2", "borough": "1" }, "geometry": { "type": "Point", "coordinates": [ -73.988063012146156, 40.722975095239953 ] } },
{ "type": "Feature", "properties": { "name": "STUYVESANT SQUARE", "facility_t": "4", "placeid": "1292", "sos": "1", "borough": "1" }, "geometry": { "type": "Point", "coordinates": [ -73.984414695913088, 40.733853048547836 ] } },
{ "type": "Feature", "properties": { "name": "6 ST AND AVE B COMMUNITY GARDEN", "facility_t": "4", "placeid": "1294", "sos": "1", "borough": "1" }, "geometry": { "type": "Point", "coordinates": [ -73.982105708531591, 40.724313447009941 ] } },
{ "type": "Feature", "properties": { "name": "VIETNAM VETERANS PLAZA", "facility_t": "4", "placeid": "1298", "sos": "1", "borough": "1" }, "geometry": { "type": "Point", "coordinates": [ -74.009849243048009, 40.702550163480353 ] } },
{ "type": "Feature", "properties": { "name": "GUSTAVE HARTMAN SQUARE", "facility_t": "13", "placeid": "1302", "sos": "2", "borough": "1" }, "geometry": { "type": "Point", "coordinates": [ -73.980735642555914, 40.720772236843118 ] } },
{ "type": "Feature", "properties": { "name": "MITCHEL SQUARE", "facility_t": "13", "placeid": "1303", "sos": "2", "borough": "1" }, "geometry": { "type": "Point", "coordinates": [ -73.94002701899548, 40.840133430865606 ] } },
{ "type": "Feature", "properties": { "name": "JOAN OF ARC ISLAND", "facility_t": "4", "placeid": "1305", "sos": "1", "borough": "1" }, "geometry": { "type": "Point", "coordinates": [ -73.976457773874202, 40.794226150837865 ] } },
{ "type": "Feature", "properties": { "name": "WEST 87 STREET PARK & GARDEN", "facility_t": "4", "placeid": "1313", "sos": "2", "borough": "1" }, "geometry": { "type": "Point", "coordinates": [ -73.970974502239741, 40.787023972664031 ] } },
{ "type": "Feature", "properties": { "name": "GENERATION X CULTURAL GARDEN", "facility_t": "4", "placeid": "1331", "sos": "2", "borough": "1" }, "geometry": { "type": "Point", "coordinates": [ -73.981385156669162, 40.722615316711419 ] } },
{ "type": "Feature", "properties": { "name": "TONY DAPOLITO RECREATION CENTER", "facility_t": "4", "placeid": "1340", "sos": "1", "borough": "1" }, "geometry": { "type": "Point", "coordinates": [ -74.00554774031275, 40.729585814971045 ] } },
{ "type": "Feature", "properties": { "name": "HANSBOROUGH RECREATION CENTER", "facility_t": "4", "placeid": "1342", "sos": "2", "borough": "1" }, "geometry": { "type": "Point", "coordinates": [ -73.939426676820915, 40.812849689113868 ] } },
{ "type": "Feature", "properties": { "name": "WAGNER POOL", "facility_t": "4", "placeid": "1349", "sos": "1", "borough": "1" }, "geometry": { "type": "Point", "coordinates": [ -73.932895630577036, 40.801891043046673 ] } },
{ "type": "Feature", "properties": { "name": "DEKOVATS TRIANGLE", "facility_t": "13", "placeid": "1352", "sos": "2", "borough": "1" }, "geometry": { "type": "Point", "coordinates": [ -73.94409728581293, 40.7798138886033 ] } },
{ "type": "Feature", "properties": { "name": "SUGAR HILL PARK", "facility_t": "4", "placeid": "1378", "sos": "1", "borough": "1" }, "geometry": { "type": "Point", "coordinates": [ -73.942198249454933, 40.826227236476903 ] } },
{ "type": "Feature", "properties": { "name": "GARDEN OF LOVE", "facility_t": "4", "placeid": "1380", "sos": "1", "borough": "1" }, "geometry": { "type": "Point", "coordinates": [ -73.956054472057033, 40.804447722073995 ] } },
{ "type": "Feature", "properties": { "name": "HARLEM ROSE GARDEN", "facility_t": "4", "placeid": "1383", "sos": "2", "borough": "1" }, "geometry": { "type": "Point", "coordinates": [ -73.939962647569516, 40.808569464402972 ] } },
{ "type": "Feature", "properties": { "name": "OUR LITTLE GREEN ACRE GARDEN", "facility_t": "4", "placeid": "1384", "sos": "2", "borough": "1" }, "geometry": { "type": "Point", "coordinates": [ -73.952061569651718, 40.808182724201792 ] } },
{ "type": "Feature", "properties": { "name": "RODALE PLEASANT PARK COMMUNITY GARDEN", "facility_t": "4", "placeid": "1388", "sos": "1", "borough": "1" }, "geometry": { "type": "Point", "coordinates": [ -73.934535265041802, 40.794102718878818 ] } },
{ "type": "Feature", "properties": { "name": "EARTH PEOPLE COMMUNITY GARDEN", "facility_t": "4", "placeid": "1425", "sos": "1", "borough": "1" }, "geometry": { "type": "Point", "coordinates": [ -73.978960957689537, 40.72507530521559 ] } },
{ "type": "Feature", "properties": { "name": "YU SUEN GARDEN", "facility_t": "4", "placeid": "1441", "sos": "2", "borough": "1" }, "geometry": { "type": "Point", "coordinates": [ -73.9784178923409, 40.728555364004933 ] } },
{ "type": "Feature", "properties": { "name": "LAFAYETTE SQUARE", "facility_t": "13", "placeid": "1449", "sos": "2", "borough": "1" }, "geometry": { "type": "Point", "coordinates": [ -73.958005517184588, 40.803681705295787 ] } },
{ "type": "Feature", "properties": { "name": "CONVENT GARDEN", "facility_t": "4", "placeid": "1451", "sos": "2", "borough": "1" }, "geometry": { "type": "Point", "coordinates": [ -73.942642249873742, 40.828361332618869 ] } },
{ "type": "Feature", "properties": { "name": "ST JAMES TRIANGLE", "facility_t": "13", "placeid": "1464", "sos": "2", "borough": "1" }, "geometry": { "type": "Point", "coordinates": [ -73.998536347556879, 40.712701205455446 ] } },
{ "type": "Feature", "properties": { "name": "AHEARN PARK", "facility_t": "4", "placeid": "1465", "sos": "1", "borough": "1" }, "geometry": { "type": "Point", "coordinates": [ -73.983533420987868, 40.714776815335092 ] } },
{ "type": "Feature", "properties": { "name": "PEACH TREE GARDEN", "facility_t": "4", "placeid": "1467", "sos": "1", "borough": "1" }, "geometry": { "type": "Point", "coordinates": [ -73.981997517634127, 40.721638618839691 ] } },
{ "type": "Feature", "properties": { "name": "MIRACLE GARDEN", "facility_t": "4", "placeid": "1470", "sos": "2", "borough": "1" }, "geometry": { "type": "Point", "coordinates": [ -73.983489556100821, 40.722727930217417 ] } },
{ "type": "Feature", "properties": { "name": "FIREMEN'S MEMORIAL GARDEN", "facility_t": "4", "placeid": "1472", "sos": "2", "borough": "1" }, "geometry": { "type": "Point", "coordinates": [ -73.977946591159338, 40.724331612133298 ] } },
{ "type": "Feature", "properties": { "name": "SHERMAN SQUARE", "facility_t": "13", "placeid": "1474", "sos": "1", "borough": "1" }, "geometry": { "type": "Point", "coordinates": [ -73.982336555004863, 40.777372680115825 ] } },
{ "type": "Feature", "properties": { "name": "TRIBORO PLAZA", "facility_t": "4", "placeid": "1509", "sos": "1", "borough": "1" }, "geometry": { "type": "Point", "coordinates": [ -73.933501535627741, 40.802374732782908 ] } },
{ "type": "Feature", "properties": { "name": "6BC BOTANICAL GARDEN", "facility_t": "4", "placeid": "1511", "sos": "2", "borough": "1" }, "geometry": { "type": "Point", "coordinates": [ -73.98065694537398, 40.723880073928704 ] } },
{ "type": "Feature", "properties": { "name": "SUTTON PLACE PARK", "facility_t": "4", "placeid": "4", "sos": "1", "borough": "1" }, "geometry": { "type": "Point", "coordinates": [ -73.960206650115921, 40.756717900259602 ] } },
{ "type": "Feature", "properties": { "name": "CHERRY TREE PARK", "facility_t": "4", "placeid": "37", "sos": "1", "borough": "1" }, "geometry": { "type": "Point", "coordinates": [ -73.947318932938686, 40.787213927246569 ] } },
{ "type": "Feature", "properties": { "name": "TRIBECA PARK", "facility_t": "4", "placeid": "182", "sos": "1", "borough": "1" }, "geometry": { "type": "Point", "coordinates": [ -74.00559900480107, 40.720186018341565 ] } },
{ "type": "Feature", "properties": { "name": "SECRET GARDEN", "facility_t": "4", "placeid": "185", "sos": "1", "borough": "1" }, "geometry": { "type": "Point", "coordinates": [ -73.980342041594483, 40.722484594937939 ] } },
{ "type": "Feature", "properties": { "name": "BRISAS DEL CARIBE GARDEN", "facility_t": "4", "placeid": "187", "sos": "1", "borough": "1" }, "geometry": { "type": "Point", "coordinates": [ -73.981488170069525, 40.722257058434003 ] } },
{ "type": "Feature", "properties": { "name": "DIAS Y FLORES GARDEN", "facility_t": "4", "placeid": "190", "sos": "2", "borough": "1" }, "geometry": { "type": "Point", "coordinates": [ -73.979913102224359, 40.729136454477995 ] } },
{ "type": "Feature", "properties": { "name": "HUMACAO COMMUNITY GARDEN", "facility_t": "4", "placeid": "193", "sos": "1", "borough": "1" }, "geometry": { "type": "Point", "coordinates": [ -73.939532599748389, 40.791325473691032 ] } },
{ "type": "Feature", "properties": { "name": "HARLEM ART PARK", "facility_t": "4", "placeid": "223", "sos": "2", "borough": "1" }, "geometry": { "type": "Point", "coordinates": [ -73.938784989118844, 40.800971395431112 ] } },
{ "type": "Feature", "properties": { "name": "WASHINGTON SQUARE PARK", "facility_t": "4", "placeid": "226", "sos": "1", "borough": "1" }, "geometry": { "type": "Point", "coordinates": [ -73.997645669925362, 40.730964674395075 ] } },
{ "type": "Feature", "properties": { "name": "WASHINGTON MARKET PARK", "facility_t": "4", "placeid": "248", "sos": "2", "borough": "1" }, "geometry": { "type": "Point", "coordinates": [ -74.011565718368345, 40.716975428874811 ] } },
{ "type": "Feature", "properties": { "name": "FISHBRIDGE GARDEN", "facility_t": "4", "placeid": "249", "sos": "2", "borough": "1" }, "geometry": { "type": "Point", "coordinates": [ -74.001307402155035, 40.709008436362105 ] } },
{ "type": "Feature", "properties": { "name": "MADISON SQUARE PARK", "facility_t": "4", "placeid": "251", "sos": "1", "borough": "1" }, "geometry": { "type": "Point", "coordinates": [ -73.987985995548399, 40.742152861001244 ] } },
{ "type": "Feature", "properties": { "name": "HONEY LOCUST PARK", "facility_t": "4", "placeid": "253", "sos": "2", "borough": "1" }, "geometry": { "type": "Point", "coordinates": [ -73.962718363790586, 40.76012634694959 ] } },
{ "type": "Feature", "properties": { "name": "STRAUS SQUARE", "facility_t": "13", "placeid": "287", "sos": "1", "borough": "1" }, "geometry": { "type": "Point", "coordinates": [ -73.989942616218769, 40.714216888955683 ] } },
{ "type": "Feature", "properties": { "name": "HARLEM RIVER PARK E 127 ST HARLEM RIVER DRIVE", "facility_t": "4", "placeid": "291", "sos": "1", "borough": "1" }, "geometry": { "type": "Point", "coordinates": [ -73.931545547367293, 40.803761538920391 ] } },
{ "type": "Feature", "properties": { "name": "LA PLAZA CULTURAL ARMANDO PEREZ GARDEN", "facility_t": "4", "placeid": "872", "sos": "2", "borough": "1" }, "geometry": { "type": "Point", "coordinates": [ -73.978685714566225, 40.725379380699984 ] } },
{ "type": "Feature", "properties": { "name": "CENTRAL PARK WEST AREA A", "facility_t": "4", "placeid": "893", "sos": "1", "borough": "1" }, "geometry": { "type": "Point", "coordinates": [ -73.979985635818821, 40.769917954700411 ] } },
{ "type": "Feature", "properties": { "name": "AMELIA GORMAN PARK", "facility_t": "4", "placeid": "899", "sos": "2", "borough": "1" }, "geometry": { "type": "Point", "coordinates": [ -73.932559853743342, 40.85576495964203 ] } },
{ "type": "Feature", "properties": { "name": "CENTRAL PARK NORTH MEADOW RECREATION CENTER", "facility_t": "4", "placeid": "953", "sos": "2", "borough": "1" }, "geometry": { "type": "Point", "coordinates": [ -73.959818847024138, 40.79120570044504 ] } },
{ "type": "Feature", "properties": { "name": "TOT LOT 116", "facility_t": "4", "placeid": "1107", "sos": "1", "borough": "1" }, "geometry": { "type": "Point", "coordinates": [ -73.96551710817333, 40.809565614656719 ] } },
{ "type": "Feature", "properties": { "name": "CENTRAL PARK THE BLOCKHOUSE", "facility_t": "4", "placeid": "1119", "sos": "2", "borough": "1" }, "geometry": { "type": "Point", "coordinates": [ -73.956290345520557, 40.798670154038064 ] } },
{ "type": "Feature", "properties": { "name": "CENTRAL PARK LASKER SKATING RINK", "facility_t": "4", "placeid": "1125", "sos": "2", "borough": "1" }, "geometry": { "type": "Point", "coordinates": [ -73.954547271084834, 40.796469308882301 ] } },
{ "type": "Feature", "properties": { "name": "CENTRAL PARK N MEADOW", "facility_t": "4", "placeid": "1126", "sos": "1", "borough": "1" }, "geometry": { "type": "Point", "coordinates": [ -73.95724378378651, 40.792304365323375 ] } },
{ "type": "Feature", "properties": { "name": "CENTRAL PARK NORTHWEST CORNER", "facility_t": "4", "placeid": "1128", "sos": "1", "borough": "1" }, "geometry": { "type": "Point", "coordinates": [ -73.958099665554485, 40.799915728907266 ] } },
{ "type": "Feature", "properties": { "name": "PARK SOUTH", "facility_t": "4", "placeid": "1129", "sos": null, "borough": "1" }, "geometry": { "type": "Point", "coordinates": [ -73.98036539999309, 40.768440743792759 ] } },
{ "type": "Feature", "properties": { "name": "CENTRAL PARK RESERVOIR NE", "facility_t": "12", "placeid": "1131", "sos": "1", "borough": "1" }, "geometry": { "type": "Point", "coordinates": [ -73.957729965654707, 40.788048500225862 ] } },
{ "type": "Feature", "properties": { "name": "CENTRAL PARK RESERVOIR NW", "facility_t": "12", "placeid": "1132", "sos": "2", "borough": "1" }, "geometry": { "type": "Point", "coordinates": [ -73.96405938521599, 40.788174169667208 ] } },
{ "type": "Feature", "properties": { "name": "CENTRAL PARK SHEEP MEADOW", "facility_t": "4", "placeid": "1134", "sos": "2", "borough": "1" }, "geometry": { "type": "Point", "coordinates": [ -73.975193694943911, 40.772083386078542 ] } },
{ "type": "Feature", "properties": { "name": "CENTRAL PARK STRAWBERRY FIELDS", "facility_t": "4", "placeid": "1135", "sos": "1", "borough": "1" }, "geometry": { "type": "Point", "coordinates": [ -73.975224089182191, 40.775700691288698 ] } },
{ "type": "Feature", "properties": { "name": "CENTRAL PARK RAMBLE", "facility_t": "4", "placeid": "1140", "sos": "1", "borough": "1" }, "geometry": { "type": "Point", "coordinates": [ -73.969714960287206, 40.776854892999573 ] } },
{ "type": "Feature", "properties": { "name": "CENTRAL PARK ARSENAL BUILDING", "facility_t": "4", "placeid": "1142", "sos": "1", "borough": "1" }, "geometry": { "type": "Point", "coordinates": [ -73.971266315791013, 40.767710531780864 ] } },
{ "type": "Feature", "properties": { "name": "DYCKMAN BASEBALL FIELDS", "facility_t": "4", "placeid": "1177", "sos": "1", "borough": "1" }, "geometry": { "type": "Point", "coordinates": [ -73.930480551406873, 40.872318426366377 ] } },
{ "type": "Feature", "properties": { "name": "STANTON STREET COURTS", "facility_t": "4", "placeid": "1039", "sos": "1", "borough": "1" }, "geometry": { "type": "Point", "coordinates": [ -73.991365102888281, 40.722131675124295 ] } },
{ "type": "Feature", "properties": { "name": "BROADWAY TEMPLE WASHINGTON HGTS UNITED METHODIST CHURCH", "facility_t": "9", "placeid": "3546", "sos": "1", "borough": "1" }, "geometry": { "type": "Point", "coordinates": [ -73.939068498655658, 40.84513588839576 ] } },
{ "type": "Feature", "properties": { "name": "ST ANDREWS PLZ", "facility_t": "13", "placeid": "12308", "sos": "2", "borough": "1" }, "geometry": { "type": "Point", "coordinates": [ -74.003027118130888, 40.71302646273066 ] } },
{ "type": "Feature", "properties": { "name": "UPPER EAST ORTHOPAEDICS", "facility_t": "7", "placeid": "11826", "sos": "1", "borough": "1" }, "geometry": { "type": "Point", "coordinates": [ -73.952085894350873, 40.77562910760328 ] } },
{ "type": "Feature", "properties": { "name": "ETHEL BARRYMORE THEATRE", "facility_t": "3", "placeid": "5704", "sos": null, "borough": "1" }, "geometry": { "type": "Point", "coordinates": [ -73.986142055542956, 40.760097470544608 ] } },
{ "type": "Feature", "properties": { "name": "ROCKEFELLER CENTER ICE RINK", "facility_t": "3", "placeid": "5926", "sos": "2", "borough": "1" }, "geometry": { "type": "Point", "coordinates": [ -73.978564012099497, 40.758688087504026 ] } },
{ "type": "Feature", "properties": { "name": "ST LUKES EPISCP CH", "facility_t": "9", "placeid": "3219", "sos": "2", "borough": "1" }, "geometry": { "type": "Point", "coordinates": [ -73.94754118088585, 40.822102086543033 ] } },
{ "type": "Feature", "properties": { "name": "BOWNE AND COMPANY STATIONERS", "facility_t": "13", "placeid": "18588", "sos": "2", "borough": "1" }, "geometry": { "type": "Point", "coordinates": [ -74.003421042826517, 40.707364353208504 ] } },
{ "type": "Feature", "properties": { "name": "MAJESTIC THEATRE", "facility_t": "3", "placeid": "5780", "sos": "2", "borough": "1" }, "geometry": { "type": "Point", "coordinates": [ -73.98792763379835, 40.75834668076962 ] } },
{ "type": "Feature", "properties": { "name": "GREENWICH VILLAGE CENTER", "facility_t": "3", "placeid": "5885", "sos": "2", "borough": "1" }, "geometry": { "type": "Point", "coordinates": [ -73.99962443364376, 40.729397170332398 ] } },
{ "type": "Feature", "properties": { "name": "ST AGNES LIBRARY", "facility_t": "3", "placeid": "5693", "sos": "1", "borough": "1" }, "geometry": { "type": "Point", "coordinates": [ -73.977460504628951, 40.784825913102495 ] } },
{ "type": "Feature", "properties": { "name": "HUDSON PARK LIBRARY", "facility_t": "3", "placeid": "5979", "sos": "1", "borough": "1" }, "geometry": { "type": "Point", "coordinates": [ -74.005307666742951, 40.729945811422233 ] } },
{ "type": "Feature", "properties": { "name": "GOOD SHEPHERD FAITH CHURCH", "facility_t": "9", "placeid": "3526", "sos": "1", "borough": "1" }, "geometry": { "type": "Point", "coordinates": [ -73.983870984783493, 40.774395075432494 ] } },
{ "type": "Feature", "properties": { "name": "HARMONIE CLUB", "facility_t": "7", "placeid": "5468", "sos": "2", "borough": "1" }, "geometry": { "type": "Point", "coordinates": [ -73.972012054695881, 40.764493935088169 ] } },
{ "type": "Feature", "properties": { "name": "ST JOSEPH CHURCH YORKVILLE", "facility_t": "9", "placeid": "9851", "sos": "2", "borough": "1" }, "geometry": { "type": "Point", "coordinates": [ -73.948387788399984, 40.777167753867957 ] } },
{ "type": "Feature", "properties": { "name": "CENTRAL PARK LOCH", "facility_t": "4", "placeid": "9912", "sos": "1", "borough": "1" }, "geometry": { "type": "Point", "coordinates": [ -73.956865825349723, 40.795040662023418 ] } },
{ "type": "Feature", "properties": { "name": "GRAMERCY THEATRE", "facility_t": "3", "placeid": "5899", "sos": "1", "borough": "1" }, "geometry": { "type": "Point", "coordinates": [ -73.98495825719759, 40.739834358735799 ] } },
{ "type": "Feature", "properties": { "name": "SPANISH EVANGELICAL BAPTIST CHURCH", "facility_t": "9", "placeid": "3176", "sos": "1", "borough": "1" }, "geometry": { "type": "Point", "coordinates": [ -73.976501758258578, 40.724041454188857 ] } },
{ "type": "Feature", "properties": { "name": "PENTECOSTAL CHURCH WASHINGTON HEIGHTS", "facility_t": "9", "placeid": "10314", "sos": "2", "borough": "1" }, "geometry": { "type": "Point", "coordinates": [ -73.933000220832838, 40.847542954932557 ] } },
{ "type": "Feature", "properties": { "name": "LINCOLN CENTER", "facility_t": "3", "placeid": "7155", "sos": "1", "borough": "1" }, "geometry": { "type": "Point", "coordinates": [ -73.983842811933357, 40.7731730800324 ] } },
{ "type": "Feature", "properties": { "name": "TRINITY AME CHURCH", "facility_t": "9", "placeid": "4134", "sos": "2", "borough": "1" }, "geometry": { "type": "Point", "coordinates": [ -73.949746963758798, 40.810627215565965 ] } },
{ "type": "Feature", "properties": { "name": "PARK AVE SYNAGOGUE", "facility_t": "9", "placeid": "15077", "sos": "2", "borough": "1" }, "geometry": { "type": "Point", "coordinates": [ -73.957936425338815, 40.781195597843713 ] } },
{ "type": "Feature", "properties": { "name": "KHAL ADATH TESHURUN CONGREGATION", "facility_t": "9", "placeid": "17228", "sos": "2", "borough": "1" }, "geometry": { "type": "Point", "coordinates": [ -73.935106359579692, 40.852948893749769 ] } },
{ "type": "Feature", "properties": { "name": "PELHAM FRITZ RECREATION CENTER", "facility_t": "4", "placeid": "14781", "sos": "2", "borough": "1" }, "geometry": { "type": "Point", "coordinates": [ -73.944985666569707, 40.804837452402417 ] } },
{ "type": "Feature", "properties": { "name": "WEBSTER HALL", "facility_t": "3", "placeid": "5828", "sos": "1", "borough": "1" }, "geometry": { "type": "Point", "coordinates": [ -73.989195889214244, 40.731747036284375 ] } },
{ "type": "Feature", "properties": { "name": "HUGH CAREY TUNNEL VENTILATION BUILDING", "facility_t": "13", "placeid": "18332", "sos": "1", "borough": "1" }, "geometry": { "type": "Point", "coordinates": [ -74.012186879357031, 40.692333087592253 ] } },
{ "type": "Feature", "properties": { "name": "CHRIST APOSTOLIC FAITH CHURCH", "facility_t": "9", "placeid": "3512", "sos": "2", "borough": "1" }, "geometry": { "type": "Point", "coordinates": [ -73.945972944679966, 40.800755876816908 ] } },
{ "type": "Feature", "properties": { "name": "HOLY TRINITY UKRAINIAN CHURCH", "facility_t": "9", "placeid": "3523", "sos": "1", "borough": "1" }, "geometry": { "type": "Point", "coordinates": [ -73.995632013445118, 40.719821491926375 ] } },
{ "type": "Feature", "properties": { "name": "CHRIST CHURCH METHODIST", "facility_t": "9", "placeid": "3538", "sos": "1", "borough": "1" }, "geometry": { "type": "Point", "coordinates": [ -73.969564874109153, 40.763915391583843 ] } },
{ "type": "Feature", "properties": { "name": "AME ZION CHURCH ON THE HILL", "facility_t": "9", "placeid": "3567", "sos": "2", "borough": "1" }, "geometry": { "type": "Point", "coordinates": [ -73.940467919347753, 40.834160274951955 ] } },
{ "type": "Feature", "properties": { "name": "NEW MT ZION BAPTIST CHURCH", "facility_t": "9", "placeid": "4139", "sos": "2", "borough": "1" }, "geometry": { "type": "Point", "coordinates": [ -73.940661774127577, 40.818362716388123 ] } },
{ "type": "Feature", "properties": { "name": "SYLVIAS RESTARAUNT", "facility_t": "7", "placeid": "2448", "sos": "2", "borough": "1" }, "geometry": { "type": "Point", "coordinates": [ -73.944497363106052, 40.808618489851192 ] } },
{ "type": "Feature", "properties": { "name": "MILLINERY CENTER SYNAGOGUE", "facility_t": "9", "placeid": "15083", "sos": "1", "borough": "1" }, "geometry": { "type": "Point", "coordinates": [ -73.986010874905247, 40.752598430367527 ] } },
{ "type": "Feature", "properties": { "name": "JACKIE ROBINSON RECREATION CENTER", "facility_t": "4", "placeid": "14767", "sos": "1", "borough": "1" }, "geometry": { "type": "Point", "coordinates": [ -73.94251801517278, 40.824149433653169 ] } },
{ "type": "Feature", "properties": { "name": "SHAARE ZEDEK CONGREGATION", "facility_t": "9", "placeid": "3720", "sos": "1", "borough": "1" }, "geometry": { "type": "Point", "coordinates": [ -73.972612130064789, 40.792325926113342 ] } },
{ "type": "Feature", "properties": { "name": "RHINELANDER REEF", "facility_t": "12", "placeid": "8812", "sos": "2", "borough": "1" }, "geometry": { "type": "Point", "coordinates": [ -73.941504123239227, 40.781042173954724 ] } },
{ "type": "Feature", "properties": { "name": "ST DUMITRU ROMANIAN ORTHODOX CHURCH", "facility_t": "9", "placeid": "3834", "sos": "1", "borough": "1" }, "geometry": { "type": "Point", "coordinates": [ -73.969724124481672, 40.787803490395724 ] } },
{ "type": "Feature", "properties": { "name": "COLONEL CHARLES YOUNG TRIANGLE", "facility_t": "13", "placeid": "17178", "sos": "2", "borough": "1" }, "geometry": { "type": "Point", "coordinates": [ -73.935838592108496, 40.827242785966334 ] } },
{ "type": "Feature", "properties": { "name": "ABE LEBEWOHL PARK", "facility_t": "4", "placeid": "17180", "sos": "1", "borough": "1" }, "geometry": { "type": "Point", "coordinates": [ -73.986982894055629, 40.72999738067184 ] } },
{ "type": "Feature", "properties": { "name": "CENTRAL PARK SUMMIT ROCK", "facility_t": "4", "placeid": "17191", "sos": "2", "borough": "1" }, "geometry": { "type": "Point", "coordinates": [ -73.970026885909718, 40.783082197788019 ] } },
{ "type": "Feature", "properties": { "name": "THOMAS JEFFERSON RECREATION CENTER", "facility_t": "4", "placeid": "17205", "sos": "1", "borough": "1" }, "geometry": { "type": "Point", "coordinates": [ -73.936843987789189, 40.793530308975008 ] } },
{ "type": "Feature", "properties": { "name": "KEHILATH JESHURUN CONGREGATION", "facility_t": "9", "placeid": "3585", "sos": "1", "borough": "1" }, "geometry": { "type": "Point", "coordinates": [ -73.956297307822695, 40.779095626713783 ] } },
{ "type": "Feature", "properties": { "name": "CROATIAN CHURCH NY STS CYRIL & METHODIUS & ST RAPHAEL RCC", "facility_t": "9", "placeid": "3258", "sos": "1", "borough": "1" }, "geometry": { "type": "Point", "coordinates": [ -73.99673529878774, 40.759098914206 ] } },
{ "type": "Feature", "properties": { "name": "ELDRIDGE STREET MUSEUM", "facility_t": "3", "placeid": "5445", "sos": "2", "borough": "1" }, "geometry": { "type": "Point", "coordinates": [ -73.993474229235119, 40.714742449456523 ] } },
{ "type": "Feature", "properties": { "name": "GUSTAUUS ADOLPHUS LUTHERAN CHURCH", "facility_t": "9", "placeid": "3621", "sos": "1", "borough": "1" }, "geometry": { "type": "Point", "coordinates": [ -73.98408508093658, 40.738504253267166 ] } },
{ "type": "Feature", "properties": { "name": "ALICE TULLY HALL", "facility_t": "3", "placeid": "6289", "sos": "1", "borough": "1" }, "geometry": { "type": "Point", "coordinates": [ -73.982599200780712, 40.77364021157225 ] } },
{ "type": "Feature", "properties": { "name": "HOLY NAME OF JESUS CHURCH", "facility_t": "9", "placeid": "3291", "sos": "1", "borough": "1" }, "geometry": { "type": "Point", "coordinates": [ -73.970613877229411, 40.794467986182902 ] } },
{ "type": "Feature", "properties": { "name": "ASTOR PL THEATRE", "facility_t": "3", "placeid": "5705", "sos": "1", "borough": "1" }, "geometry": { "type": "Point", "coordinates": [ -73.992211117789481, 40.729303192807635 ] } },
{ "type": "Feature", "properties": { "name": "HERALD CENTER", "facility_t": "7", "placeid": "12075", "sos": "1", "borough": "1" }, "geometry": { "type": "Point", "coordinates": [ -73.988316785383418, 40.749571405646918 ] } },
{ "type": "Feature", "properties": { "name": "CON ED W 41 ST", "facility_t": "7", "placeid": "12080", "sos": "2", "borough": "1" }, "geometry": { "type": "Point", "coordinates": [ -73.997480292360663, 40.759829745100674 ] } },
{ "type": "Feature", "properties": { "name": "NEW YORK STOCK EXC 11 WALL STREET", "facility_t": "7", "placeid": "2989", "sos": "2", "borough": "1" }, "geometry": { "type": "Point", "coordinates": [ -74.011138002231476, 40.707181532731795 ] } },
{ "type": "Feature", "properties": { "name": "ST JOSEPH OF THE HOLY FAMILY CHURCH", "facility_t": "9", "placeid": "15423", "sos": "2", "borough": "1" }, "geometry": { "type": "Point", "coordinates": [ -73.954060052618516, 40.811724198660151 ] } },
{ "type": "Feature", "properties": { "name": "HOLY CROSS AFRICAN ORTHODOX CHURCH", "facility_t": "9", "placeid": "3553", "sos": "1", "borough": "1" }, "geometry": { "type": "Point", "coordinates": [ -73.944715131367445, 40.810601727238641 ] } },
{ "type": "Feature", "properties": { "name": "CENTRAL PARK HARLEM MEER", "facility_t": "12", "placeid": "6461", "sos": "1", "borough": "1" }, "geometry": { "type": "Point", "coordinates": [ -73.951777243003619, 40.796743352242061 ] } },
{ "type": "Feature", "properties": { "name": "AMERICAN AIRLINES THEATRE", "facility_t": "3", "placeid": "5449", "sos": "2", "borough": "1" }, "geometry": { "type": "Point", "coordinates": [ -73.988076368700661, 40.756829565436561 ] } },
{ "type": "Feature", "properties": { "name": "AMERICAN EXPRESS TOWER 200 VESEY ST", "facility_t": "7", "placeid": "2777", "sos": "1", "borough": "1" }, "geometry": { "type": "Point", "coordinates": [ -74.014868819826589, 40.713882027023153 ] } },
{ "type": "Feature", "properties": { "name": "AMC EMPIRE 25 THEATRE", "facility_t": "3", "placeid": "5714", "sos": "1", "borough": "1" }, "geometry": { "type": "Point", "coordinates": [ -73.989278527809759, 40.756706152647382 ] } },
{ "type": "Feature", "properties": { "name": "ST PAULS BAPTIST CHURCH", "facility_t": "9", "placeid": "15958", "sos": "2", "borough": "1" }, "geometry": { "type": "Point", "coordinates": [ -73.946576110474155, 40.814185524055574 ] } },
{ "type": "Feature", "properties": { "name": "EMUNATH ISRAEL CONGREGATION", "facility_t": "9", "placeid": "3609", "sos": "1", "borough": "1" }, "geometry": { "type": "Point", "coordinates": [ -73.997196467495854, 40.744526577257659 ] } },
{ "type": "Feature", "properties": { "name": "REDEEMED CHRISTIAN CHURCH OF GOD HOUSE OF PRAYER", "facility_t": "9", "placeid": "4162", "sos": "1", "borough": "1" }, "geometry": { "type": "Point", "coordinates": [ -73.942693187043034, 40.813021503775964 ] } },
{ "type": "Feature", "properties": { "name": "GREATER HOOD MEMORIAL CHURCH", "facility_t": "9", "placeid": "3606", "sos": "1", "borough": "1" }, "geometry": { "type": "Point", "coordinates": [ -73.938014385676524, 40.821887805143632 ] } },
{ "type": "Feature", "properties": { "name": "TRANSFIGURATION EPISCOPAL CHURCH", "facility_t": "9", "placeid": "16107", "sos": "1", "borough": "1" }, "geometry": { "type": "Point", "coordinates": [ -73.985800678392408, 40.745118924195438 ] } },
{ "type": "Feature", "properties": { "name": "ST MARYS EPISCP CH", "facility_t": "9", "placeid": "3714", "sos": "2", "borough": "1" }, "geometry": { "type": "Point", "coordinates": [ -73.956146016619911, 40.814882202004171 ] } },
{ "type": "Feature", "properties": { "name": "CINEMA VILLAGE THEATRE", "facility_t": "3", "placeid": "13623", "sos": "2", "borough": "1" }, "geometry": { "type": "Point", "coordinates": [ -73.993384639426822, 40.734021114172606 ] } },
{ "type": "Feature", "properties": { "name": "ST CLEMENTS EPISCOPAL CHURCH", "facility_t": "9", "placeid": "16104", "sos": "2", "borough": "1" }, "geometry": { "type": "Point", "coordinates": [ -73.991551403809325, 40.761565170486286 ] } },
{ "type": "Feature", "properties": { "name": "BRONX KILL", "facility_t": "12", "placeid": "14028", "sos": "2", "borough": "1" }, "geometry": { "type": "Point", "coordinates": [ -73.920061465436405, 40.799359724772351 ] } },
{ "type": "Feature", "properties": { "name": "WAYS REEF", "facility_t": "12", "placeid": "14029", "sos": "1", "borough": "1" }, "geometry": { "type": "Point", "coordinates": [ -73.930139939668123, 40.778044157464073 ] } },
{ "type": "Feature", "properties": { "name": "ST AGNES RECTORY", "facility_t": "9", "placeid": "3657", "sos": "1", "borough": "1" }, "geometry": { "type": "Point", "coordinates": [ -73.974693801065172, 40.751923441480983 ] } },
{ "type": "Feature", "properties": { "name": "ROOSEVELT I REEF", "facility_t": "12", "placeid": "14110", "sos": null, "borough": "1" }, "geometry": { "type": "Point", "coordinates": [ -73.961784957822189, 40.749178591652573 ] } },
{ "type": "Feature", "properties": { "name": "TABERNACLE 7 DAY ADVENTIST CHURCH", "facility_t": "9", "placeid": "4157", "sos": "1", "borough": "1" }, "geometry": { "type": "Point", "coordinates": [ -73.947503262756115, 40.829115150217234 ] } },
{ "type": "Feature", "properties": { "name": "ST PAULS GERMAN EVANGELICAL LUTHERAN CHURCH", "facility_t": "9", "placeid": "4206", "sos": "2", "borough": "1" }, "geometry": { "type": "Point", "coordinates": [ -73.999676259015985, 40.74511518902662 ] } },
{ "type": "Feature", "properties": { "name": "INWOOD HILL PARK THE CLOVE", "facility_t": "4", "placeid": "15039", "sos": "2", "borough": "1" }, "geometry": { "type": "Point", "coordinates": [ -73.925429184026811, 40.871411496959865 ] } },
{ "type": "Feature", "properties": { "name": "MACOMB'S BRIDGE LIBRARY", "facility_t": "3", "placeid": "5398", "sos": "1", "borough": "1" }, "geometry": { "type": "Point", "coordinates": [ -73.935846828701727, 40.826543936587747 ] } },
{ "type": "Feature", "properties": { "name": "WALTER LORD GALLERY", "facility_t": "3", "placeid": "18589", "sos": "2", "borough": "1" }, "geometry": { "type": "Point", "coordinates": [ -74.003466033028459, 40.707332678354788 ] } },
{ "type": "Feature", "properties": { "name": "DELURY SQUARE", "facility_t": "13", "placeid": "18360", "sos": "2", "borough": "1" }, "geometry": { "type": "Point", "coordinates": [ -74.005100679541172, 40.709101402943361 ] } },
{ "type": "Feature", "properties": { "name": "ORACH CHAIM CONGREGATION", "facility_t": "9", "placeid": "3340", "sos": "2", "borough": "1" }, "geometry": { "type": "Point", "coordinates": [ -73.951482201674921, 40.784803220568733 ] } },
{ "type": "Feature", "properties": { "name": "CENTER FOR BOOK ARTS", "facility_t": "3", "placeid": "13646", "sos": "1", "borough": "1" }, "geometry": { "type": "Point", "coordinates": [ -73.98989316555911, 40.744809857522405 ] } },
{ "type": "Feature", "properties": { "name": "CBS BROADCAST CENTER 524 W 57 ST", "facility_t": "7", "placeid": "16235", "sos": "1", "borough": "1" }, "geometry": { "type": "Point", "coordinates": [ -73.989659888663311, 40.769260613273552 ] } },
{ "type": "Feature", "properties": { "name": "EMANUEL CHURCH OF GOD IN CHRIST W 118 ST", "facility_t": "9", "placeid": "1644", "sos": "2", "borough": "1" }, "geometry": { "type": "Point", "coordinates": [ -73.954234529727458, 40.805521659427825 ] } },
{ "type": "Feature", "properties": { "name": "ABYSSINIAN PLGD", "facility_t": "4", "placeid": "17035", "sos": "1", "borough": "1" }, "geometry": { "type": "Point", "coordinates": [ -73.940846136142412, 40.817207987897696 ] } },
{ "type": "Feature", "properties": { "name": "COP COT", "facility_t": "4", "placeid": "17044", "sos": "2", "borough": "1" }, "geometry": { "type": "Point", "coordinates": [ -73.976480835013845, 40.766874125338717 ] } },
{ "type": "Feature", "properties": { "name": "SHERMAN MONUMENT", "facility_t": "4", "placeid": "17045", "sos": "2", "borough": "1" }, "geometry": { "type": "Point", "coordinates": [ -73.973066513296487, 40.764798295085889 ] } },
{ "type": "Feature", "properties": { "name": "RADIO CITY MUSIC HALL", "facility_t": "3", "placeid": "7590", "sos": "2", "borough": "1" }, "geometry": { "type": "Point", "coordinates": [ -73.979950894078854, 40.760021449546841 ] } },
{ "type": "Feature", "properties": { "name": "RANDALLS ISLAND ICAHN STADIUM", "facility_t": "4", "placeid": "17324", "sos": "1", "borough": "1" }, "geometry": { "type": "Point", "coordinates": [ -73.924601136597659, 40.793035562486487 ] } },
{ "type": "Feature", "properties": { "name": "SOCIETY FOR THE ADVANCEMENT OF JUDAISM", "facility_t": "9", "placeid": "12053", "sos": "2", "borough": "1" }, "geometry": { "type": "Point", "coordinates": [ -73.970021675532678, 40.785824483668868 ] } },
{ "type": "Feature", "properties": { "name": "BARNETT NEWMAN TRIANGLE", "facility_t": "13", "placeid": "18363", "sos": "1", "borough": "1" }, "geometry": { "type": "Point", "coordinates": [ -74.005053941067445, 40.718772157122984 ] } },
{ "type": "Feature", "properties": { "name": "INTERCHURCH CENTER", "facility_t": "9", "placeid": "8405", "sos": "2", "borough": "1" }, "geometry": { "type": "Point", "coordinates": [ -73.963960830557312, 40.810823002829572 ] } },
{ "type": "Feature", "properties": { "name": "WATER CLUB RESTAURANT", "facility_t": "13", "placeid": "7256", "sos": "2", "borough": "1" }, "geometry": { "type": "Point", "coordinates": [ -73.972367267311697, 40.740420298757194 ] } },
{ "type": "Feature", "properties": { "name": "ST ANTHONY OF PADUA CHURCH", "facility_t": "9", "placeid": "11179", "sos": "2", "borough": "1" }, "geometry": { "type": "Point", "coordinates": [ -74.001388529345391, 40.727255391457184 ] } },
{ "type": "Feature", "properties": { "name": "LINCOLN CENTER METROPOLITAN OPERA HOUSE", "facility_t": "3", "placeid": "13235", "sos": "1", "borough": "1" }, "geometry": { "type": "Point", "coordinates": [ -73.984263353640983, 40.772748781465104 ] } },
{ "type": "Feature", "properties": { "name": "CHELSEA PIERS SPORTS CENTER", "facility_t": "4", "placeid": "18593", "sos": "1", "borough": "1" }, "geometry": { "type": "Point", "coordinates": [ -74.009304478924989, 40.746621592067541 ] } },
{ "type": "Feature", "properties": { "name": "TIMES SQUARE MUSEUM & VISITOR CENTER", "facility_t": "3", "placeid": "13800", "sos": "2", "borough": "1" }, "geometry": { "type": "Point", "coordinates": [ -73.984529894961838, 40.7586682747854 ] } },
{ "type": "Feature", "properties": { "name": "ST JOSEPHS RC CHAPEL", "facility_t": "9", "placeid": "3724", "sos": null, "borough": "1" }, "geometry": { "type": "Point", "coordinates": [ -74.016944223782815, 40.711578784069111 ] } },
{ "type": "Feature", "properties": { "name": "FRENCH DU ST ESPRIT CHURCH", "facility_t": "9", "placeid": "3218", "sos": "1", "borough": "1" }, "geometry": { "type": "Point", "coordinates": [ -73.968700587794288, 40.763410635692836 ] } },
{ "type": "Feature", "properties": { "name": "MOST PRECIOUS BLD", "facility_t": "9", "placeid": "15082", "sos": "2", "borough": "1" }, "geometry": { "type": "Point", "coordinates": [ -73.998877102306082, 40.717767109573565 ] } },
{ "type": "Feature", "properties": { "name": "1 ASTOR PLAZA", "facility_t": "13", "placeid": "12271", "sos": "1", "borough": "1" }, "geometry": { "type": "Point", "coordinates": [ -73.986065873536447, 40.757826351422054 ] } },
{ "type": "Feature", "properties": { "name": "MASARYK BASKETBALL GYM", "facility_t": "4", "placeid": "18422", "sos": "1", "borough": "1" }, "geometry": { "type": "Point", "coordinates": [ -73.980429462538808, 40.71753134443599 ] } },
{ "type": "Feature", "properties": { "name": "HELEN HAYES THEATRE", "facility_t": "3", "placeid": "15800", "sos": "1", "borough": "1" }, "geometry": { "type": "Point", "coordinates": [ -73.987773043485973, 40.757903036260423 ] } },
{ "type": "Feature", "properties": { "name": "JOHANN CHRISTOPH FREDRICH VON SCHILLER", "facility_t": "4", "placeid": "15055", "sos": null, "borough": "1" }, "geometry": { "type": "Point", "coordinates": [ -73.971736429099622, 40.773144608943475 ] } },
{ "type": "Feature", "properties": { "name": "BENNETT PARK", "facility_t": "4", "placeid": "15209", "sos": "2", "borough": "1" }, "geometry": { "type": "Point", "coordinates": [ -73.938106063998333, 40.852947895744293 ] } },
{ "type": "Feature", "properties": { "name": "TOT LOT 105", "facility_t": "4", "placeid": "15220", "sos": "1", "borough": "1" }, "geometry": { "type": "Point", "coordinates": [ -73.970946251539061, 40.801761719319174 ] } },
{ "type": "Feature", "properties": { "name": "MT MORIAH BAPTIST CHURCH", "facility_t": "9", "placeid": "3722", "sos": "1", "borough": "1" }, "geometry": { "type": "Point", "coordinates": [ -73.942595653507922, 40.808085548248961 ] } },
{ "type": "Feature", "properties": { "name": "DORIS C FREEDMAN PLAZA", "facility_t": "13", "placeid": "18359", "sos": "2", "borough": "1" }, "geometry": { "type": "Point", "coordinates": [ -73.972799156997908, 40.765136993121047 ] } },
{ "type": "Feature", "properties": { "name": "FAMILY COMMUNITY GARDEN", "facility_t": "4", "placeid": "15500", "sos": "2", "borough": "1" }, "geometry": { "type": "Point", "coordinates": [ -73.943733490853703, 40.795191712595845 ] } },
{ "type": "Feature", "properties": { "name": "RECREATION CENTER 54", "facility_t": "4", "placeid": "15506", "sos": "2", "borough": "1" }, "geometry": { "type": "Point", "coordinates": [ -73.965102670647951, 40.756544681363941 ] } },
{ "type": "Feature", "properties": { "name": "LOWER EAST SIDE ECOLOGY CENTER COMMUNITY GARDEN", "facility_t": "4", "placeid": "15522", "sos": "1", "borough": "1" }, "geometry": { "type": "Point", "coordinates": [ -73.979680026515055, 40.724599624535188 ] } },
{ "type": "Feature", "properties": { "name": "JACKIE ROBINSON COMMUNITY GARDEN", "facility_t": "4", "placeid": "15523", "sos": "1", "borough": "1" }, "geometry": { "type": "Point", "coordinates": [ -73.939795641810932, 40.80307154311722 ] } },
{ "type": "Feature", "properties": { "name": "DIAMANTE GARDEN", "facility_t": "4", "placeid": "15539", "sos": "2", "borough": "1" }, "geometry": { "type": "Point", "coordinates": [ -73.936358690644028, 40.797848310244802 ] } },
{ "type": "Feature", "properties": { "name": "FIRST BAPTIST CHURCH FREDERICK DOUGLASS BLVD", "facility_t": "9", "placeid": "3222", "sos": "1", "borough": "1" }, "geometry": { "type": "Point", "coordinates": [ -73.942812069204692, 40.822052624092542 ] } },
{ "type": "Feature", "properties": { "name": "JAVITS CENTER", "facility_t": "3", "placeid": "14149", "sos": "1", "borough": "1" }, "geometry": { "type": "Point", "coordinates": [ -74.003411764359981, 40.757451872832043 ] } },
{ "type": "Feature", "properties": { "name": "TRAMWAY PLAZA", "facility_t": "4", "placeid": "15351", "sos": "1", "borough": "1" }, "geometry": { "type": "Point", "coordinates": [ -73.964400755217241, 40.760992662483126 ] } },
{ "type": "Feature", "properties": { "name": "CLINTON COMMUNITY GARDEN W 48 ST", "facility_t": "4", "placeid": "15354", "sos": "1", "borough": "1" }, "geometry": { "type": "Point", "coordinates": [ -73.991735620451124, 40.762815837544203 ] } },
{ "type": "Feature", "properties": { "name": "COLLYER BROTHERS PARK", "facility_t": "4", "placeid": "15356", "sos": "2", "borough": "1" }, "geometry": { "type": "Point", "coordinates": [ -73.941035369659033, 40.808523973731646 ] } },
{ "type": "Feature", "properties": { "name": "SHERIDAN SQUARE VIEWING GARDEN", "facility_t": "4", "placeid": "15358", "sos": "1", "borough": "1" }, "geometry": { "type": "Point", "coordinates": [ -74.002105009873176, 40.732994116192614 ] } },
{ "type": "Feature", "properties": { "name": "A PHILIP RANDOLPH SQUARE", "facility_t": "13", "placeid": "15360", "sos": "1", "borough": "1" }, "geometry": { "type": "Point", "coordinates": [ -73.952450185616584, 40.803889494085439 ] } },
{ "type": "Feature", "properties": { "name": "SEPTUAGESIMO UNO PARK", "facility_t": "4", "placeid": "15363", "sos": "1", "borough": "1" }, "geometry": { "type": "Point", "coordinates": [ -73.98430708476171, 40.77868180836554 ] } },
{ "type": "Feature", "properties": { "name": "WEST 104 STREET GARDEN", "facility_t": "4", "placeid": "15364", "sos": "1", "borough": "1" }, "geometry": { "type": "Point", "coordinates": [ -73.962047861613314, 40.79698872977589 ] } },
{ "type": "Feature", "properties": { "name": "SOUTH STREET SEAPORT MUSEUM", "facility_t": "3", "placeid": "5872", "sos": "1", "borough": "1" }, "geometry": { "type": "Point", "coordinates": [ -74.003736658100664, 40.706618348445865 ] } },
{ "type": "Feature", "properties": { "name": "OL LOURDES CHURCH", "facility_t": "9", "placeid": "3565", "sos": "2", "borough": "1" }, "geometry": { "type": "Point", "coordinates": [ -73.94829780975563, 40.823181663233669 ] } },
{ "type": "Feature", "properties": { "name": "TRUST IN GOD BAPTIST CHURCH", "facility_t": "9", "placeid": "17238", "sos": "1", "borough": "1" }, "geometry": { "type": "Point", "coordinates": [ -73.997684031041743, 40.715672296673688 ] } },
{ "type": "Feature", "properties": { "name": "TEMPLE SHAARAY TEFILA", "facility_t": "9", "placeid": "3541", "sos": "2", "borough": "1" }, "geometry": { "type": "Point", "coordinates": [ -73.955529587715645, 40.773303438139948 ] } },
{ "type": "Feature", "properties": { "name": "CONGREGATION OHAV SHOLOM", "facility_t": "9", "placeid": "12260", "sos": "1", "borough": "1" }, "geometry": { "type": "Point", "coordinates": [ -73.978408648475636, 40.787215980464573 ] } },
{ "type": "Feature", "properties": { "name": "TWEED COURTHOUSE", "facility_t": "13", "placeid": "1869", "sos": "1", "borough": "1" }, "geometry": { "type": "Point", "coordinates": [ -74.005482396116875, 40.713357025127685 ] } },
{ "type": "Feature", "properties": { "name": "CHURCH OF THE INTERCESSION", "facility_t": "9", "placeid": "3305", "sos": "2", "borough": "1" }, "geometry": { "type": "Point", "coordinates": [ -73.945538755029119, 40.832247146146379 ] } },
{ "type": "Feature", "properties": { "name": "ISRAEL TEMPLE 75 ST", "facility_t": "9", "placeid": "3537", "sos": "2", "borough": "1" }, "geometry": { "type": "Point", "coordinates": [ -73.961808443566369, 40.772640679069397 ] } },
{ "type": "Feature", "properties": { "name": "ST BRIGID CHURCH ST EMERIC", "facility_t": "9", "placeid": "3689", "sos": "2", "borough": "1" }, "geometry": { "type": "Point", "coordinates": [ -73.980695685252115, 40.725439197653273 ] } },
{ "type": "Feature", "properties": { "name": "GRACE ST PAULS LUTHERAN CHURCH", "facility_t": "9", "placeid": "14948", "sos": "2", "borough": "1" }, "geometry": { "type": "Point", "coordinates": [ -73.980132526897492, 40.777242422139416 ] } },
{ "type": "Feature", "properties": { "name": "ST MATTHEW ST TIMOTHY CHURCH", "facility_t": "9", "placeid": "15287", "sos": "1", "borough": "1" }, "geometry": { "type": "Point", "coordinates": [ -73.971648646032691, 40.784388611913712 ] } },
{ "type": "Feature", "properties": { "name": "TOT LOT 112", "facility_t": "4", "placeid": "14887", "sos": "1", "borough": "1" }, "geometry": { "type": "Point", "coordinates": [ -73.968032130114068, 40.806229114000033 ] } },
{ "type": "Feature", "properties": { "name": "CENTRAL PARK WEST AREA B", "facility_t": "4", "placeid": "14892", "sos": "1", "borough": "1" }, "geometry": { "type": "Point", "coordinates": [ -73.976660704237375, 40.774105087071874 ] } },
{ "type": "Feature", "properties": { "name": "CENTRAL PARK RAVINE", "facility_t": "4", "placeid": "14894", "sos": "1", "borough": "1" }, "geometry": { "type": "Point", "coordinates": [ -73.955160441295277, 40.795242012341198 ] } },
{ "type": "Feature", "properties": { "name": "ST LUKES LUTHERAN CHURCH", "facility_t": "9", "placeid": "3557", "sos": "1", "borough": "1" }, "geometry": { "type": "Point", "coordinates": [ -73.988656771561011, 40.759920783173527 ] } },
{ "type": "Feature", "properties": { "name": "CIRCLE LINE W 42 ST", "facility_t": "13", "placeid": "19168", "sos": "1", "borough": "1" }, "geometry": { "type": "Point", "coordinates": [ -74.00154007984068, 40.762699401752791 ] } },
{ "type": "Feature", "properties": { "name": "DAVID H KOCH THEATER", "facility_t": "3", "placeid": "9489", "sos": "1", "borough": "1" }, "geometry": { "type": "Point", "coordinates": [ -73.983650903397859, 40.771775189424218 ] } },
{ "type": "Feature", "properties": { "name": "HARLEM PENTECOSTAL ASSEMBLY", "facility_t": "9", "placeid": "17384", "sos": "1", "borough": "1" }, "geometry": { "type": "Point", "coordinates": [ -73.940459332986279, 40.810450408170659 ] } },
{ "type": "Feature", "properties": { "name": "TITANIC MEMORIAL LIGHTHOUSE", "facility_t": "13", "placeid": "18585", "sos": "2", "borough": "1" }, "geometry": { "type": "Point", "coordinates": [ -74.003858403088927, 40.707389710853356 ] } },
{ "type": "Feature", "properties": { "name": "SPUYTEN DUYVIL CREEK", "facility_t": "12", "placeid": "14111", "sos": "1", "borough": "1" }, "geometry": { "type": "Point", "coordinates": [ -73.920659078349757, 40.873644096029899 ] } },
{ "type": "Feature", "properties": { "name": "MUSIC BOX THEATRE", "facility_t": "3", "placeid": "5803", "sos": "2", "borough": "1" }, "geometry": { "type": "Point", "coordinates": [ -73.987225457766527, 40.758846558608909 ] } },
{ "type": "Feature", "properties": { "name": "CENTRAL BAPTIST NY CHURCH", "facility_t": "9", "placeid": "3771", "sos": "1", "borough": "1" }, "geometry": { "type": "Point", "coordinates": [ -73.971923625350158, 40.791155551139681 ] } },
{ "type": "Feature", "properties": { "name": "ROCK CHURCH INC", "facility_t": "9", "placeid": "15459", "sos": "1", "borough": "1" }, "geometry": { "type": "Point", "coordinates": [ -73.96610715689043, 40.763972762921597 ] } },
{ "type": "Feature", "properties": { "name": "SAMUEL J FRIEDMAN THEATRE", "facility_t": "3", "placeid": "5477", "sos": "2", "borough": "1" }, "geometry": { "type": "Point", "coordinates": [ -73.986781262638672, 40.760314709264385 ] } },
{ "type": "Feature", "properties": { "name": "MONTE HERMON CHURCH", "facility_t": "9", "placeid": "15248", "sos": "1", "borough": "1" }, "geometry": { "type": "Point", "coordinates": [ -73.979753984961107, 40.72148942545099 ] } },
{ "type": "Feature", "properties": { "name": "TRINITY PRESBYTERIAN CHURCH", "facility_t": "9", "placeid": "3634", "sos": "1", "borough": "1" }, "geometry": { "type": "Point", "coordinates": [ -73.986836520559152, 40.768151933908371 ] } },
{ "type": "Feature", "properties": { "name": "ANSCHE CHESED SYNAGOGUE", "facility_t": "9", "placeid": "17232", "sos": "2", "borough": "1" }, "geometry": { "type": "Point", "coordinates": [ -73.970961671629084, 40.797819402393671 ] } },
{ "type": "Feature", "properties": { "name": "ST VLADIMIR UKRANIAN ORTHO CHURCH", "facility_t": "9", "placeid": "1639", "sos": "1", "borough": "1" }, "geometry": { "type": "Point", "coordinates": [ -73.976289476715408, 40.784592863769674 ] } },
{ "type": "Feature", "properties": { "name": "MASTER CHURCH", "facility_t": "9", "placeid": "14509", "sos": "2", "borough": "1" }, "geometry": { "type": "Point", "coordinates": [ -73.955412663759461, 40.809020821473098 ] } },
{ "type": "Feature", "properties": { "name": "NY BUDDHIST CHURCH", "facility_t": "9", "placeid": "3828", "sos": "2", "borough": "1" }, "geometry": { "type": "Point", "coordinates": [ -73.97021280306403, 40.80175359111783 ] } },
{ "type": "Feature", "properties": { "name": "FIRST CHURCH OF CHRIST HOLINESS", "facility_t": "9", "placeid": "3675", "sos": "2", "borough": "1" }, "geometry": { "type": "Point", "coordinates": [ -73.940806529248974, 40.805180733525233 ] } },
{ "type": "Feature", "properties": { "name": "AMBASSADOR THEATRE", "facility_t": "3", "placeid": "5412", "sos": "2", "borough": "1" }, "geometry": { "type": "Point", "coordinates": [ -73.985077169600046, 40.761191833639295 ] } },
{ "type": "Feature", "properties": { "name": "TRINITY CEMETERY RIVERSIDE DR", "facility_t": "13", "placeid": "7432", "sos": "2", "borough": "1" }, "geometry": { "type": "Point", "coordinates": [ -73.94784025660276, 40.832739562864973 ] } },
{ "type": "Feature", "properties": { "name": "GRACE UNITED METHODIST CHURCH", "facility_t": "9", "placeid": "1647", "sos": "2", "borough": "1" }, "geometry": { "type": "Point", "coordinates": [ -73.965078143313974, 40.79865523104683 ] } },
{ "type": "Feature", "properties": { "name": "TIME WARNER CENTER", "facility_t": "7", "placeid": "2663", "sos": "1", "borough": "1" }, "geometry": { "type": "Point", "coordinates": [ -73.98342104005205, 40.768225569225976 ] } },
{ "type": "Feature", "properties": { "name": "MT OLIVET BAPTIST CHURCH", "facility_t": "9", "placeid": "3587", "sos": "1", "borough": "1" }, "geometry": { "type": "Point", "coordinates": [ -73.948040349645737, 40.804878286254343 ] } },
{ "type": "Feature", "properties": { "name": "ST PATRICKS CATHEDRAL RECTORY", "facility_t": "9", "placeid": "3613", "sos": "1", "borough": "1" }, "geometry": { "type": "Point", "coordinates": [ -73.97543287803083, 40.758388028364116 ] } },
{ "type": "Feature", "properties": { "name": "CENTRAL PRESBYTERIAN CHURCH", "facility_t": "9", "placeid": "3846", "sos": "2", "borough": "1" }, "geometry": { "type": "Point", "coordinates": [ -73.96726891869308, 40.765715453946768 ] } },
{ "type": "Feature", "properties": { "name": "GOD 3 AVE CHURCH", "facility_t": "9", "placeid": "3872", "sos": "2", "borough": "1" }, "geometry": { "type": "Point", "coordinates": [ -73.939473028984224, 40.798335011851663 ] } },
{ "type": "Feature", "properties": { "name": "UNITARIAN CHURCH ALL SOUL", "facility_t": "9", "placeid": "3888", "sos": "2", "borough": "1" }, "geometry": { "type": "Point", "coordinates": [ -73.958244794337531, 40.775339263961435 ] } },
{ "type": "Feature", "properties": { "name": "GEORGE BRUCE LIBRARY", "facility_t": "3", "placeid": "15998", "sos": "1", "borough": "1" }, "geometry": { "type": "Point", "coordinates": [ -73.957025468668618, 40.813787041379925 ] } },
{ "type": "Feature", "properties": { "name": "MEMORIAL BAPTIST CHURCH", "facility_t": "9", "placeid": "15436", "sos": "2", "borough": "1" }, "geometry": { "type": "Point", "coordinates": [ -73.952111879653174, 40.802298866409032 ] } },
{ "type": "Feature", "properties": { "name": "EMANUEL BAPTIST CHURCH", "facility_t": "9", "placeid": "3841", "sos": "1", "borough": "1" }, "geometry": { "type": "Point", "coordinates": [ -73.935586048134709, 40.79799099226134 ] } },
{ "type": "Feature", "properties": { "name": "CITIGROUP CENTER BUILDING", "facility_t": "7", "placeid": "2745", "sos": "2", "borough": "1" }, "geometry": { "type": "Point", "coordinates": [ -73.970346276927927, 40.758360803979187 ] } },
{ "type": "Feature", "properties": { "name": "GUGGENHEIM BANDSHELL", "facility_t": "3", "placeid": "6288", "sos": "2", "borough": "1" }, "geometry": { "type": "Point", "coordinates": [ -73.985684851561302, 40.77248316527222 ] } },
{ "type": "Feature", "properties": { "name": "BATTERY PARK", "facility_t": "4", "placeid": "1512", "sos": "1", "borough": "1" }, "geometry": { "type": "Point", "coordinates": [ -74.015668946447406, 40.703044671759507 ] } },
{ "type": "Feature", "properties": { "name": "FRICK COLLECTION", "facility_t": "3", "placeid": "5697", "sos": "1", "borough": "1" }, "geometry": { "type": "Point", "coordinates": [ -73.967275801280181, 40.771202743234497 ] } },
{ "type": "Feature", "properties": { "name": "NYC CENTER THEATER", "facility_t": "3", "placeid": "13794", "sos": "2", "borough": "1" }, "geometry": { "type": "Point", "coordinates": [ -73.979590237904148, 40.763816876105089 ] } },
{ "type": "Feature", "properties": { "name": "ST THOMAS MORE CHURCH", "facility_t": "9", "placeid": "3227", "sos": "1", "borough": "1" }, "geometry": { "type": "Point", "coordinates": [ -73.95672997193779, 40.782701249776601 ] } },
{ "type": "Feature", "properties": { "name": "SKYSCRAPER MUSEUM", "facility_t": "3", "placeid": "5974", "sos": "2", "borough": "1" }, "geometry": { "type": "Point", "coordinates": [ -74.017630917886933, 40.7057559127121 ] } },
{ "type": "Feature", "properties": { "name": "CONGREGATION TALMUD TORAH ADERETH EL", "facility_t": "9", "placeid": "11627", "sos": "1", "borough": "1" }, "geometry": { "type": "Point", "coordinates": [ -73.981370420647778, 40.743164188430235 ] } },
{ "type": "Feature", "properties": { "name": "COOPER HEWITT SMITHSONIAN DESIGN MUSEUM", "facility_t": "3", "placeid": "14221", "sos": "2", "borough": "1" }, "geometry": { "type": "Point", "coordinates": [ -73.95785754125103, 40.784369068601698 ] } },
{ "type": "Feature", "properties": { "name": "ORCHARD ALLEY GARDEN", "facility_t": "4", "placeid": "17434", "sos": "2", "borough": "1" }, "geometry": { "type": "Point", "coordinates": [ -73.97842454042798, 40.721374101647527 ] } },
{ "type": "Feature", "properties": { "name": "117 STREET COMMUNITY GARDEN", "facility_t": "4", "placeid": "17438", "sos": "2", "borough": "1" }, "geometry": { "type": "Point", "coordinates": [ -73.940491367740776, 40.798893905963155 ] } },
{ "type": "Feature", "properties": { "name": "CENTRAL PARK CONSERVATORY GARDEN", "facility_t": "4", "placeid": "17495", "sos": "1", "borough": "1" }, "geometry": { "type": "Point", "coordinates": [ -73.952450927016642, 40.793754049860148 ] } },
{ "type": "Feature", "properties": { "name": "HUDSON GUILD JOHN LOVEJOY ELLIOTT CENTER", "facility_t": "4", "placeid": "4301", "sos": "2", "borough": "1" }, "geometry": { "type": "Point", "coordinates": [ -74.00156389477165, 40.749635165668707 ] } },
{ "type": "Feature", "properties": { "name": "SOUTH COVE", "facility_t": "12", "placeid": "6137", "sos": "1", "borough": "1" }, "geometry": { "type": "Point", "coordinates": [ -74.018567995932401, 40.707451139139259 ] } },
{ "type": "Feature", "properties": { "name": "ELMER HOLMES BOBST LIBRARY NYU", "facility_t": "3", "placeid": "9672", "sos": "2", "borough": "1" }, "geometry": { "type": "Point", "coordinates": [ -73.997114181133654, 40.729529046557424 ] } },
{ "type": "Feature", "properties": { "name": "MUSEUM OF THE CITY OF NEW YORK", "facility_t": "3", "placeid": "5420", "sos": "2", "borough": "1" }, "geometry": { "type": "Point", "coordinates": [ -73.952009316507898, 40.792401952614306 ] } },
{ "type": "Feature", "properties": { "name": "VLADECK PARK", "facility_t": "4", "placeid": "17531", "sos": "2", "borough": "1" }, "geometry": { "type": "Point", "coordinates": [ -73.982028687478604, 40.712439371395654 ] } },
{ "type": "Feature", "properties": { "name": "ST CATHERINE'S PARK", "facility_t": "4", "placeid": "17533", "sos": "2", "borough": "1" }, "geometry": { "type": "Point", "coordinates": [ -73.958656282605205, 40.765161999455202 ] } },
{ "type": "Feature", "properties": { "name": "ASSER LEVY POOL", "facility_t": "4", "placeid": "17593", "sos": "1", "borough": "1" }, "geometry": { "type": "Point", "coordinates": [ -73.975493982883648, 40.735860017924395 ] } },
{ "type": "Feature", "properties": { "name": "ST STANISLAUS BISHOP & MARTYR RC CHURCH", "facility_t": "9", "placeid": "14931", "sos": "1", "borough": "1" }, "geometry": { "type": "Point", "coordinates": [ -73.984725919802003, 40.726738043847497 ] } },
{ "type": "Feature", "properties": { "name": "COLUMBUS LIBRARY", "facility_t": "3", "placeid": "5869", "sos": null, "borough": "1" }, "geometry": { "type": "Point", "coordinates": [ -73.991256984254605, 40.76495524746516 ] } },
{ "type": "Feature", "properties": { "name": "SWISS BANK TOWER", "facility_t": "13", "placeid": "12049", "sos": "2", "borough": "1" }, "geometry": { "type": "Point", "coordinates": [ -73.976471762079527, 40.757916847417292 ] } },
{ "type": "Feature", "properties": { "name": "NEW VICTORY THEATER", "facility_t": "3", "placeid": "5390", "sos": "2", "borough": "1" }, "geometry": { "type": "Point", "coordinates": [ -73.987455455567115, 40.756564727756917 ] } },
{ "type": "Feature", "properties": { "name": "METROPOLITAN AME CHURCH", "facility_t": "9", "placeid": "3656", "sos": "1", "borough": "1" }, "geometry": { "type": "Point", "coordinates": [ -73.94035861075875, 40.813652183193952 ] } },
{ "type": "Feature", "properties": { "name": "OUR LADY OF VICTORY CHURCH", "facility_t": "9", "placeid": "4136", "sos": "2", "borough": "1" }, "geometry": { "type": "Point", "coordinates": [ -74.008728735320062, 40.707023518172313 ] } },
{ "type": "Feature", "properties": { "name": "THE JEWISH CENTER", "facility_t": "9", "placeid": "15259", "sos": "2", "borough": "1" }, "geometry": { "type": "Point", "coordinates": [ -73.973297914310265, 40.787235838767714 ] } },
{ "type": "Feature", "properties": { "name": "SECOND FRIENDSHIP BAPTIST CHURCH", "facility_t": "9", "placeid": "4160", "sos": "2", "borough": "1" }, "geometry": { "type": "Point", "coordinates": [ -73.950485996462078, 40.807524493185966 ] } },
{ "type": "Feature", "properties": { "name": "ST ROSE OF LIMA CHURCH", "facility_t": "9", "placeid": "3239", "sos": "1", "borough": "1" }, "geometry": { "type": "Point", "coordinates": [ -73.939100896844181, 40.838001003705301 ] } },
{ "type": "Feature", "properties": { "name": "DAKOTA APARTMENTS", "facility_t": "13", "placeid": "7854", "sos": "1", "borough": "1" }, "geometry": { "type": "Point", "coordinates": [ -73.97636853208671, 40.776629132136442 ] } },
{ "type": "Feature", "properties": { "name": "MILL ROCK PARK ISLAND", "facility_t": "4", "placeid": "9908", "sos": "1", "borough": "1" }, "geometry": { "type": "Point", "coordinates": [ -73.938389929136676, 40.780645113632275 ] } },
{ "type": "Feature", "properties": { "name": "OR OLAM E 55 ST CONSERVATIVE SYNAGOGUE", "facility_t": "9", "placeid": "3318", "sos": "2", "borough": "1" }, "geometry": { "type": "Point", "coordinates": [ -73.96577180416341, 40.757660953536842 ] } },
{ "type": "Feature", "properties": { "name": "CHERRY LANE THEATRE", "facility_t": "3", "placeid": "5471", "sos": "1", "borough": "1" }, "geometry": { "type": "Point", "coordinates": [ -74.005328045288664, 40.731291321323717 ] } },